g_m_t,airport_id,iata_code,city_iata,icao_code,geoname_id,latitude,longitude,airport_name,country
4.30,727,BIN,BIN,OABN,7668387.0,34.80417,67.82361,Bamiyan,Afghanistan
4.30,962,BST,BST,OABT,0.0,31.55,64.36667,Bost,Afghanistan
4.30,1186,CCN,CCN,OACC,7668388.0,34.533333,65.26667,Chakcharan,Afghanistan
4.30,1704,DAZ,DAZ,OADZ,7730737.0,38.466667,70.88333,Darwaz,Afghanistan
4.30,1965,DWR,DWR,,0.0,0.0,0.0,Dwyer Air Base,Afghanistan
4.30,2251,FAH,FAH,OAFR,1454265.0,32.36667,62.11667,Farah,Afghanistan
4.30,2266,FBD,FBD,OAFZ,6300000.0,37.1,70.566666,Faizabad,Afghanistan
4.30,2722,GRG,GRG,,8299251.0,33.61667,69.11667,Gardez,Afghanistan
4.30,2834,GZI,GZI,,1141269.0,33.0,68.416664,Ghazni,Afghanistan
4.30,2897,HEA,HEA,OAHR,0.0,34.212696,62.22599,Herat,Afghanistan
4.30,3430,JAA,JAA,OAJL,1453109.0,34.433334,70.46667,Jalalabad,Afghanistan
4.30,3699,KBL,KBL,OAKB,1454002.0,34.56069,69.21152,Khwaja Rawash,Afghanistan
4.30,3741,KDH,KDH,OAKN,0.0,31.506945,65.8475,Kandahar,Afghanistan
4.30,3828,KHT,KHT,,0.0,35.0,72.0,Khost,Afghanistan
4.30,4094,KUR,KUR,,8299086.0,38.4,71.11667,Kuran-O-Munjan,Afghanistan
4.30,4120,KWH,KWH,OAHN,7730738.0,33.916668,66.333336,Khwahan,Afghanistan
4.30,4489,LQN,LQN,OAQN,7668389.0,34.95,63.666668,Qala Nau,Afghanistan
4.30,4969,MMZ,MMZ,OAMN,0.0,35.916668,64.73333,Maimana,Afghanistan
4.30,5282,MZR,MZR,OAMS,6252379.0,36.70919,67.20849,Mazar-i-sharif,Afghanistan
4.30,5626,OAA,OAA,,0.0,0.0,0.0,Shank Air Base,Afghanistan
4.30,5628,OAH,OAH,,0.0,0.0,0.0,Shindand Air Base,Afghanistan
4.30,5629,OAI,OAI,OAIX,0.0,34.959614,69.27051,Bagram,Afghanistan
4.30,5636,OAS,OAS,,8298993.0,33.1258,68.8386,Sharana Air Base,Afghanistan
4.30,5638,OAZ,OAZ,OAZJ,0.0,31.1,61.983334,Camp Bastion,Afghanistan
4.30,5759,OLR,OLR,,0.0,34.023167,36.130333,Salerno Air Base,Afghanistan
4.30,6937,SBF,SBF,OADS,1127289.0,33.61667,68.53333,Sardeh Band,Afghanistan
4.30,7048,SGA,SGA,OASN,7730739.0,38.033333,71.71667,Sheghnan,Afghanistan
4.30,7709,TII,TII,OATN,0.0,32.86667,65.63333,Tirinkot,Afghanistan
4.30,7887,TQN,TQN,OATQ,8298749.0,36.766666,69.53333,Taluqan,Afghanistan
4.30,8146,UND,UND,OAUZ,1135689.0,36.660557,68.909164,Kunduz,Afghanistan
4.30,8177,URN,URN,,0.0,32.95,69.183334,Urgoon,Afghanistan
4.30,8184,URZ,URZ,,8260973.0,32.9,66.61667,Uruzgan,Afghanistan
4.30,9613,ZAJ,ZAJ,OAZJ,1120985.0,31.1,61.983334,Zaranj,Afghanistan
-4,295,ANU,ANU,TAPA,3575954.0,17.108334,-61.76389,V. C. Bird International,Antigua and Barbuda
-4,558,BBQ,BBQ,,0.0,17.555555,-61.765,Barbuda,Unknown
-4,473,AXA,AXA,TQPF,3573371.0,18.216667,-63.066666,Wallblake,Anguilla
1,7702,TIA,TIA,LATI,3183875.0,41.419132,19.71328,Rinas Mother Teresa,Albania
4,2221,EVN,EVN,UGEE,799617.0,40.15272,44.39805,Zvartnots International,Armenia
4,4601,LWN,LWN,UDSG,6453423.0,40.716667,43.833332,Gyoumri,Armenia
1,286,ANL,ANL,,8260993.0,-11.25,17.25,Andulo,Angola
1,374,ARZ,ARZ,FNZE,7730521.0,-7.5,13.5,N'zeto,Angola
1,519,AZZ,AZZ,FNAM,7730516.0,-7.883333,13.15,Ambriz,Angola
1,999,BUG,BUG,FNBG,6297059.0,-12.606389,13.405556,Gen V Deslandes,Angola
1,1123,CAB,CAB,FNCA,6297060.0,-5.583333,12.2,Cabinda,Angola
1,1143,CAV,CAV,FNCZ,7730520.0,-11.9,22.866667,Cazombo,Angola
1,1167,CBT,CBT,FNCM,7668246.0,-12.483333,13.483333,Catumbela,Angola
1,1233,CEO,CEO,FNWK,8261051.0,9.308333,124.73055,Waco Kungo,Angola
1,1250,CFF,CFF,FNCF,7768322.0,-8.766667,18.0,Cafunfo,Angola
1,1445,CNZ,CNZ,,7730931.0,-11.5,19.0,Cangamba,Angola
1,1556,CTI,CTI,FNCV,7730518.0,-15.166667,19.166668,Cuito Cuanavale,Angola
1,1897,DRC,DRC,,7730987.0,-17.833332,20.7,Dirico,Angola
1,1941,DUE,DUE,FNDU,7668247.0,-7.4,20.816668,Dundo,Angola
1,2580,GGC,GGC,,0.0,-12.65,22.566668,Lumbala,Angola
1,2818,GXG,GXG,FNNG,7668251.0,-7.783333,15.45,Negage,Angola
1,3558,JMB,JMB,,7731144.0,-14.7,16.083332,Jamba,Angola
1,3947,KNP,KNP,FNCP,7731180.0,-9.766944,15.450278,Capanda,Angola
1,4169,LAD,LAD,FNLU,6297063.0,-8.847951,13.234862,4 de Fevereiro,Angola
1,4217,LBZ,LBZ,FNLK,8261009.0,-8.383333,20.666668,Lukapa,Angola
1,4395,LLT,LLT,,8299217.0,-12.3711,13.5367,Lobito,Angola
1,4570,LUO,LUO,FNUE,7668258.0,-11.5,20.166668,Luena,Angola
1,4635,LZM,LZM,,8299040.0,-9.05,18.083332,Luzamba,Angola
1,4751,MEG,MEG,FNMA,7668248.0,-9.533333,16.333332,Malange,Angola
1,5116,MSZ,MSZ,FNMO,7668250.0,-15.208611,12.160833,Namibe,Angola
1,5350,NDD,NDD,FNSU,7668255.0,-11.166667,13.866667,Sumbe,Angola
1,5352,NDF,NDF,,7731331.0,-9.333333,14.833333,Ndalatandos,Angola
1,5505,NOV,NOV,FNHU,6297061.0,-12.805556,15.757222,Huambo,Angola
1,5621,NZA,NZA,FNZG,6354953.0,-8.383333,-21.433332,Nzagi,Angola
1,5971,PBN,PBN,FNPA,7668252.0,-10.7,13.75,Porto Amboim,Angola
1,6067,PGI,PGI,FNCH,145778.0,-7.333333,20.8,Chitato,Angola
1,6984,SDD,SDD,FNBU,7668257.0,-14.924444,13.576667,Lubango,Angola
1,7288,SPP,SPP,FNME,7668249.0,-14.6375,17.725555,Menongue,Angola
1,7365,SSY,SSY,FNBC,7839143.0,-6.273889,14.244167,M'banza Congo,Angola
1,7431,SVP,SVP,FNKU,6297062.0,-12.404167,16.956667,Kuito (Silva Porto),Angola
1,7513,SZA,SZA,FNSO,7668254.0,-6.033333,12.416667,Soyo,Angola
1,8040,UAL,UAL,FNUA,7668256.0,-11.0,22.5,Luau,Angola
1,8083,UGO,UGO,FNUG,7668259.0,-7.816667,15.15,Uige,Angola
1,8299,VHC,VHC,FNSA,7668253.0,-9.75,20.55,Saurimo,Angola
1,8371,VPE,VPE,FNGI,7730078.0,-17.05,15.7,Ondjiva,Angola
1,8767,XGN,XGN,FNXA,7668260.0,-16.75,14.972222,Xangongo,Angola
-4,7826,TNM,TNM,SCRM,8260905.0,-62.190556,-58.98639,Teniente R. Marsh Martin,Antarctica
3.3,10545,QAO,,AT17,,-70.821517,11.643345,Novo Runway,Antarctica
13,10554,QET,,AT27,6620460.0,-71.955389,2.467397,Troll Airfield,Antarctica
-3,107,AEP,BUE,SABE,6301847.0,-34.55622,-58.41667,Aeroparque Jorge Newbery,Argentina
-3,114,AFA,AFA,SAMR,6300529.0,-34.58917,-68.40056,San Rafael,Argentina
-3,310,AOL,AOL,SARL,6300550.0,-29.683332,-57.15,Paso De Los Libres,Argentina
-3,341,APZ,APZ,SAHZ,7730148.0,-38.916668,-70.083336,Zapala,Argentina
-3,367,ARR,ARR,SAVR,7730773.0,-45.033333,-70.833336,Alto Rio Senguerr,Argentina
-3,698,BHI,BHI,SAZB,6300580.0,-38.730556,-62.150555,Comandante Espora,Argentina
-3,920,BRC,BRC,SAZS,6300590.0,-41.145966,-71.16109,San Carlos de Bariloche Airport,Argentina
-3,1392,CLX,CLX,,3435364.0,-25.333332,-57.666668,Clorinda,Argentina
-3,1436,CNQ,CNQ,SARC,6300546.0,-27.449722,-58.762222,Camba Punta,Argentina
-3,1439,CNT,CNT,,7730929.0,-27.216667,-61.233334,Charata,Argentina
-3,1448,COC,COC,SAAC,6300509.0,-31.297222,-57.996387,Concordia,Argentina
-3,1463,COR,COR,SACO,6300518.0,-31.31548,-64.21377,Pajas Blancas,Argentina
-3,1474,CPC,CPC,SAZY,7603035.0,-40.066666,-71.13333,Chapelco,Argentina
-3,1478,CPG,CPG,,0.0,-40.833332,-63.0,Carmen De Patagones,Argentina
-3,1501,CRD,CRD,SAVC,6300563.0,-45.787224,-67.462776,Comodoro Rivadavia,Argentina
-3,1514,CRR,CRR,SANW,6300539.0,-29.916668,-61.833332,Ceres,Argentina
-3,1547,CSZ,CSZ,,8298887.0,-37.433334,-61.88333,Brigadier Hector Ruiz,Argentina
-3,1550,CTC,CTC,SANC,6300532.0,-28.448334,-65.779724,Catamarca,Argentina
-3,1592,CUT,CUT,SAZW,7730151.0,-38.9,-69.0,Cutral,Argentina
-3,1605,CVH,CVH,SAHE,7730764.0,-37.916668,-71.0,Caviahue,Argentina
-3,1606,CVI,CVI,,7730960.0,-46.416668,-67.416664,Caleta Olivia,Argentina
-3,2054,EHL,EHL,SAVB,6301850.0,-42.0,-71.75,El Bolson,Argentina
-3,2093,ELO,ELO,SATD,7730768.0,-26.5,-54.733334,Eldorado,Argentina
-3,2119,EMX,EMX,SAVD,7730770.0,-42.033333,-71.15,El Maiten,Argentina
-3,2147,EPA,EPA,SADP,6301849.0,-34.608334,-58.6125,El Palomar,Argentina
-3,2157,EQS,EQS,SAVE,6300564.0,-42.90972,-71.1425,Esquel,Argentina
-3,2242,EZE,BUE,SAEZ,6300524.0,-34.81273,-58.539833,Ezeiza Ministro Pistarini,Argentina
-3,2356,FMA,FMA,SARF,6300548.0,-26.212778,-58.235,El Pucu,Argentina
-3,2436,FTE,FTE,SAWC,7668427.0,-50.284225,-72.053696,El Calafate,Argentina
-3,2589,GGS,GGS,SAWR,6300577.0,-48.766666,-70.25,Gobernador Gregores,Argentina
-3,2599,GHU,GHU,SAAG,6300510.0,-33.004166,-58.61222,Gualeguaychu,Argentina
-3,2675,GNR,GNR,SAHR,7730765.0,-39.983334,-67.6,General Roca,Argentina
-3,2711,GPO,GPO,SAZG,6300583.0,-35.63333,-63.766666,General Pico,Argentina
-3,3037,HOS,HOS,,3861262.0,-37.416668,-70.21667,Oscar Reguera,Argentina
-3,3215,IGB,IGB,SAVJ,7730771.0,-41.3,-69.583336,Ingeniero Jacobacci,Argentina
-3,3224,IGR,IGR,SARI,6300549.0,-25.731504,-54.47635,Cataratas,Argentina
-3,3289,ING,ING,SAWA,6300570.0,-50.583332,-72.666664,Lago Argentino,Argentina
-3,3342,IRJ,IRJ,SANL,6300535.0,-29.383333,-66.78333,Capitan Vicente Almando,Argentina
-3,3573,JNI,JNI,SAAJ,6300511.0,-34.583332,-60.966667,Junin,Argentina
-3,3621,JSM,JSM,SAWS,7730776.0,-44.066666,-70.433334,Jose De San Martin,Argentina
-3,3639,JUJ,JUJ,SASJ,6300555.0,-24.4,-65.083336,El Cadillal,Argentina
-3,4230,LCM,LCM,SACC,7730763.0,-30.966667,-64.5,La Cumbre,Argentina
-3,4233,LCP,LCP,,7731213.0,-38.083332,-70.666664,Loncopue,Argentina
-3,4314,LGS,LGS,SAMM,6300528.0,-35.5,-69.583336,Malargue,Argentina
-3,4330,LHS,LHS,SAVH,7730150.0,-32.85,-68.816666,Las Heras,Argentina
-3,4394,LLS,LLS,SATK,6300560.0,-24.716667,-60.583332,Las Lomitas,Argentina
-3,4403,LMD,LMD,,7731231.0,-40.833332,-68.13333,Los Menucos,Argentina
-3,4471,LPG,LPG,SADL,6300523.0,-34.916668,-57.95,La Plata,Argentina
-3,4572,LUQ,LUQ,SAOU,6300545.0,-33.274445,-66.35861,San Luis,Argentina
-3,4711,MCS,MCS,SARM,6300551.0,-30.270832,-57.64111,Monte Caseros,Argentina
-3,4735,MDQ,MDQ,SAZM,3430864.0,-37.934723,-57.572224,Mar Del Plata,Argentina
-3,4742,MDX,MDX,SATM,7730769.0,-29.167221,-58.075558,Mercedes,Argentina
-3,4744,MDZ,MDZ,SAME,6300525.0,-32.82789,-68.79891,El Plumerillo,Argentina
-3,4886,MJR,MJR,,3430668.0,-38.25,-57.833332,Miramar,Argentina
-3,5045,MQD,MQD,SAVQ,7730772.0,-41.25,-68.73333,Maquinchao,Argentina
-3,5336,NCJ,NCJ,,3834971.0,-30.94404,-61.56148,Sunchales,Argentina
-3,5369,NEC,NEC,,3430443.0,-38.566666,-58.75,Necochea,Argentina
-3,5520,NQN,NQN,SAZN,6300586.0,-38.95,-68.15222,Neuquen,Argentina
-3,5685,OES,OES,SAVN,6300565.0,-40.733334,-64.95,San Antonio Oeste,Argentina
-3,5755,OLN,OLN,,0.0,-45.57,-69.0,Colonia Sarmiento,Argentina
-3,5815,ORA,ORA,SASO,6300556.0,-23.333332,-64.166664,Oran,Argentina
-3,5901,OVR,OVR,SAZF,7730778.0,-36.88889,-60.22778,Olavarria,Argentina
-3,5915,OYA,OYA,SATG,7730149.0,-29.103333,-59.216667,Goya,Argentina
-3,5921,OYO,OYO,SAZH,3833860.0,-38.36667,-60.25,Tres Arroyos,Argentina
-3,6032,PEH,PEH,SAZP,6300587.0,-35.85,-61.86667,Pehuajo,Argentina
-3,6194,PMQ,PMQ,SAWP,6300576.0,-46.53639,-70.98361,Perito Moreno,Argentina
-3,6202,PMY,PMY,SAVY,6300569.0,-42.733334,-65.066666,El Tehuelche,Argentina
-3,6284,PRA,PRA,SAAP,6300512.0,-31.795,-60.48,Parana,Argentina
-3,6300,PRQ,PRQ,,8299142.0,-26.833332,-60.666668,Pres. Roque Saenz Pena,Argentina
-3,6328,PSS,PSS,SARP,6300552.0,-27.383888,-55.9675,Posadas,Argentina
-3,6364,PUD,PUD,SAWD,6300571.0,-47.75,-65.916664,Puerto Deseado,Argentina
-3,6578,RAF,RAF,,3839479.0,29.6,34.85,Rafaela,Argentina
-3,6632,RCQ,RCQ,SATR,6300561.0,-29.183332,-59.7,Reconquista,Argentina
-3,6636,RCU,RCU,SAOC,6300540.0,-33.165558,-64.331665,Rio Cuarto,Argentina
-3,6647,RDS,RDS,SAHS,7730147.0,-37.38333,-68.9,Rincon de los Sauces,Argentina
-3,6659,REL,REL,SAVT,6300567.0,-43.233334,-65.32333,Almirante Zar,Argentina
-3,6665,RES,RES,SARE,6300547.0,-27.45139,-59.050835,Resistencia,Argentina
-3,6680,RGA,RGA,SAWE,6300572.0,-53.779167,-67.75,Rio Grande,Argentina
-3,6685,RGL,RGL,SAWG,6300573.0,-51.61667,-69.28333,Internacional,Argentina
-3,6692,RHD,RHD,SANH,7730766.0,-27.533333,-64.95,Rio Hondo,Argentina
-3,6749,RLO,RLO,,7730767.0,-32.384445,-65.5525,Valle Del Conlara,Argentina
-3,6802,ROS,ROS,SAAR,3838583.0,-32.933334,-60.783333,Fisherton,Argentina
-3,6807,ROY,ROY,SAWM,7730775.0,-45.666668,-70.25,Rio Mayo,Argentina
-3,6830,RSA,RSA,SAZR,6300589.0,-36.566666,-64.26667,Santa Rosa,Argentina
-3,6903,RYO,RYO,,7730777.0,-51.583332,-72.21667,Rio Turbio,Argentina
-3,6904,RZA,RZA,SAWU,6300578.0,-50.0,-68.53333,Santa Cruz,Argentina
-3,6985,SDE,SDE,SANE,6300533.0,-27.765278,-64.32222,Santiago Del Estero,Argentina
-3,7037,SFN,SFN,SAAV,6300515.0,-31.716667,-60.816666,Santa Fe,Argentina
-3,7069,SGV,SGV,SAVS,7730774.0,-41.566666,-65.35,Sierra Grande,Argentina
-3,7172,SLA,SLA,SASA,6300554.0,-24.844217,-65.47849,Gen Belgrano,Argentina
-3,7362,SST,SST,,3428123.0,-33.416668,-60.783333,Santa Teresita,Argentina
-3,7613,TDL,TDL,SAZT,6300591.0,-37.333332,-59.083332,Tandil,Argentina
-3,7946,TTG,TTG,SAST,6300559.0,-22.533333,-63.833332,Tartagal,Argentina
-3,7963,TUC,TUC,SANT,6300537.0,-26.833332,-65.2,Benj Matienzo,Argentina
-3,8043,UAQ,UAQ,SANU,6300538.0,-31.55,-68.51667,San Juan,Argentina
-3,8113,ULA,ULA,SAWJ,6300575.0,-49.316666,-67.666664,San Julian,Argentina
-3,8185,USH,USH,SAWH,6300574.0,-54.839348,-68.31245,Islas Malvinas Argentinas International,Argentina
-3,8232,UZU,UZU,SATU,6300562.0,-29.778889,-58.095554,Curuzu Cuatia,Argentina
-3,8262,VCF,VCF,,7731598.0,-40.7,-66.15,Valcheta,Argentina
-3,8276,VDM,VDM,SAVV,6300568.0,-40.85,-63.016666,Viedma,Argentina
-3,8278,VDR,VDR,SAOD,6300541.0,-31.94111,-65.14222,Villa Dolores,Argentina
-3,8296,VGS,VGS,,7731600.0,-35.083332,-63.0,General Villegas,Argentina
-3,8335,VLG,VLG,SAZV,6300592.0,-38.016666,-57.583332,Villa Gesell,Argentina
-3,8348,VME,VME,SAOR,6300544.0,-33.63333,-65.416664,Villa Mercedes,Argentina
-11,2437,FTI,FTI,NSFQ,5881271.0,-14.216667,-169.45,Fitiuta,American Samoa
-11,5689,OFU,OFU,,5881562.0,-14.166667,-169.7,Airstrip,American Samoa
-11,6257,PPG,PPG,NSTU,5881593.0,-14.326389,-170.6964,Pago Pago International Airport,American Samoa
1,294,ANT,ANT,,0.0,47.15,10.283333,St Anton,Austria
1,2741,GRZ,GRZ,LOWG,6299668.0,46.994125,15.444928,Thalerhof,Austria
1,3027,HOH,HOH,LOIH,6299665.0,47.38333,9.7,Hohenems-Dornbirn,Austria
1,3296,INN,INN,LOWI,6299669.0,47.25745,11.351467,Innsbruck-kranebitten,Austria
1,3904,KLU,KLU,LOWK,3218938.0,46.650124,14.324192,Alpe Adria,Austria
1,4441,LNZ,LNZ,LOWL,6299670.0,48.23987,14.193345,Blue Danube,Austria
1,6455,QDI,HOH,,0.0,47.36081,9.68671,Dornbirn Bus Station,Austria
1,6554,QXZ,QXZ,,0.0,0.0,0.0,Woergl Bus Station,Austria
1,7518,SZG,SZG,LOWS,6299671.0,47.791225,12.997331,W. A. Mozart,Austria
1,8306,VIE,VIE,LOWW,2761369.0,48.11972,16.563583,Vienna International,Austria
1,8776,XGZ,XGZ,,2781503.0,47.50311,9.7471,Bregenz Railway Station,Austria
1,8838,XJS,XJS,,0.0,0.0,0.0,Kitzbuehl Railway,Austria
1,8913,XOH,XJS,,0.0,0.0,0.0,Kitzbuehel Bus Station,Austria
1,8914,XOI,XOI,,2775183.0,47.01257,10.29179,Ischgl Bus Station,Austria
1,8920,XOO,XOO,,0.0,0.0,0.0,Soelden Bus Station,Austria
1,8925,XOV,ANT,,0.0,0.0,0.0,St Anton Bus Station,Austria
1,8926,XOW,XOW,,2765282.0,48.71667,16.16667,Seefeld Bus Station,Austria
1,9032,XWC,VIE,,0.0,48.2081743,16.3738189,Suedbahnhof Railway,Austria
1,9048,XWT,VIE,,0.0,48.2081743,16.3738189,Mitte CAT Rail Station,Austria
1,9050,XWW,VIE,,0.0,48.2081743,16.3738189,Westbahnhof Railway,Austria
1,9918,ZRS,ZRS,,0.0,0.0,0.0,Flexenpass Heliport,Austria
1,9927,ZSB,SZG,,0.0,47.80949,13.05501,Salzburg Hbf Railway Station,Austria
10,2,AAB,AAB,YARY,7730796.0,-26.7,141.04167,Arrabury,Australia
10,31,ABG,ABG,,8288517.0,-17.666668,143.2,Abingdon,Australia
10,32,ABH,ABH,YAPH,7668679.0,-23.65,146.63333,Alpha,Australia
10,37,ABM,ABM,YBAM,7730800.0,-10.942619,142.45033,Bamaga Injinoo,Australia
10,48,ABX,ABX,YMAY,6301309.0,-36.069626,146.95453,Albury,Australia
9.30,83,ADL,ADL,YPAD,6301322.0,-34.938175,138.53735,Adelaide International Airport,Australia
9.30,86,ADO,ADO,YAMK,7730805.0,-31.016666,137.15,Andamooka,Australia
10,149,AGW,AGW,,7730809.0,-12.15,142.15,Agnew,Australia
8,234,ALH,ALH,YABA,2078285.0,-34.944996,117.804,Albany,Australia
9.30,269,AMT,AMT,YAMT,7730823.0,-26.766666,132.03334,Amata,Australia
9.30,273,AMX,AMX,YAMM,7730824.0,-21.74,135.24,Ammaroo,Australia
9.30,300,ANZ,ANZ,,8298801.0,-25.083332,132.16667,Angus Downs,Australia
10,362,ARM,ARM,YARM,7730238.0,-30.532297,151.61493,Armidale,Australia
10,373,ARY,ARY,YARA,7668680.0,-37.316666,143.0,Ararat,Australia
9.30,390,ASP,ASP,YBAS,6301291.0,-23.80139,133.90338,Alice Springs,Australia
10,428,AUD,AUD,YAGD,7730834.0,-18.506945,139.88167,Augustus Downs,Australia
10,445,AUU,AUU,YAUR,7668683.0,-13.166667,142.25,Aurukun Mission,Australia
9.30,453,AVG,AVG,YAUV,7730836.0,-15.65,130.01666,Auvergne,Australia
10,461,AVV,MEL,YMAV,6301308.0,-38.02637,144.47308,Avalon,Australia
9.30,470,AWN,AWN,,8299001.0,-26.25,138.66667,Alton Downs,Australia
9.30,471,AWP,AWP,YAUS,7730838.0,-20.5,137.75,Austral Downs,Australia
10,475,AXC,AXC,YAMC,7730839.0,-22.958055,145.2425,Aramac,Australia
9.30,480,AXL,AXL,YALX,7730840.0,-19.083332,136.66667,Alexandria,Australia
9.30,492,AYD,AYD,,7730841.0,-19.3,135.95,Alroy Downs,Australia
9.30,496,AYL,AYL,,7730843.0,-18.033333,135.53334,Anthony Lagoon,Australia
9.30,500,AYQ,AYQ,YAYE,6301288.0,-25.190878,130.97658,Connellan,Australia
10,501,AYR,AYR,YAYR,7730845.0,-19.596666,147.32445,Ayr,Australia
10,576,BCI,BCI,YBAR,7730239.0,-23.559168,145.30194,Barcaldine,Australia
10,577,BCK,BCK,,7730849.0,-17.4,144.16667,Bolwarra,Australia
9.30,592,BCZ,BCZ,,0.0,-13.783333,137.8,Bickerton Island,Australia
10,594,BDB,BDB,YBUD,7668694.0,-24.898708,152.32187,Bundaberg,Australia
10,596,BDD,BDD,YBAU,7730854.0,-10.148655,142.17166,Badu Island,Australia
8,615,BDW,BDW,,8261025.0,-17.3,127.46667,Bedford Downs,Australia
8,622,BEE,BEE,,8299011.0,-16.966667,122.666664,Beagle Bay,Australia
10,631,BEO,NTL,YPEC,7668757.0,-33.033333,151.66667,Belmont,Australia
10,636,BEU,BEU,YBIE,7730242.0,-24.23,139.445,Bedourie,Australia
10,644,BFC,BFC,,7730858.0,-15.9,145.33333,Bloomfield,Australia
9.30,706,BHQ,BHQ,YBHI,7668685.0,-31.998983,141.46857,Broken Hill,Australia
10,708,BHS,BHS,YBTH,7730002.0,-33.41387,149.65518,Raglan,Australia
10,709,BHT,BHT,,8298711.0,-23.366667,141.56667,Brighton Downs,Australia
10,729,BIP,BIP,,2207247.0,-16.15,143.75,Bulimba,Australia
8,736,BIW,BIW,,8298692.0,-19.566668,127.166664,Billiluna,Australia
10,777,BKP,BKP,,8298911.0,-20.5,138.5,Barkly Downs,Australia
10,778,BKQ,BKQ,YBCK,7668684.0,-24.434168,145.42833,Blackall,Australia
10,800,BLN,BLN,YBLA,7668687.0,-36.55,145.98334,Benalla,Australia
10,805,BLS,BLS,YBLL,7730869.0,-28.05,147.48334,Bollon,Australia
10,806,BLT,BLT,YBTR,7668693.0,-23.602184,148.8084,Blackwater,Australia
8,816,BME,BME,YBRM,6301303.0,-17.95264,122.23429,Broome,Australia
10,827,BMP,BMP,YBPI,7730872.0,-20.783333,149.23334,Brampton Island,Australia
10,842,BNE,BNE,YBBN,6301292.0,-27.40303,153.10905,Brisbane International,Australia
10,847,BNK,BNK,YBNA,7730243.0,-28.837606,153.5564,Ballina Byron Gateway,Australia
9.30,881,BOX,BOX,BOCH,7730876.0,-16.066668,136.28334,Borroloola,Australia
8,902,BQB,BQB,,7730187.0,-33.716667,115.25,Bussellton,Australia
10,909,BQL,BQL,YBOU,7730244.0,-22.9,139.9,Boulia,Australia
8,917,BQW,BQW,YBGO,7730877.0,-20.183332,127.8,Balgo Hills,Australia
10,926,BRJ,BRJ,,8298890.0,-36.7,146.93333,Bright,Australia
10,927,BRK,BRK,YBKE,7668686.0,-30.083332,145.93333,Bourke,Australia
9.30,936,BRT,BRT,YBTI,7668692.0,-11.766667,130.63333,Bathurst Island,Australia
10,952,BSJ,BSJ,YBNS,7668688.0,-37.833332,147.63333,Bairnsdale,Australia
9.30,972,BTD,BTD,,8298768.0,-18.666668,135.91667,Brunette Downs,Australia
10,992,BTX,BTX,YBEO,7730883.0,-25.7,140.73334,Betoota,Australia
10,996,BUC,BUC,YBKT,7730884.0,-17.75,139.53334,Burketown,Australia
8,1014,BUY,BUY,KBUY,7730888.0,-33.316666,115.63333,Bunbury,Australia
10,1023,BVI,BVI,YBDV,7730240.0,-25.898333,139.34334,Birdsville,Australia
8,1034,BVZ,BVZ,YBYS,7730893.0,-15.0,124.0,Beverley Springs,Australia
8,1036,BWB,BWB,YBWX,7730894.0,-20.783333,115.416664,Barrow Island,Australia
10,1051,BWQ,BWQ,YBRW,7668690.0,-29.95,146.86667,Brewarrina,Australia
10,1052,BWT,BWT,YBUI,7668786.0,-40.993145,145.72507,Burnie Wynyard,Australia
10,1053,BWU,SYD,YSBK,6301341.0,-33.916668,151.03334,Sydney Bankstown,Australia
8,1060,BXF,BXF,,8298752.0,-17.545555,128.30779,Belburn,Australia
10,1061,BXG,BXG,YBDG,2176187.0,-36.734722,144.30194,Bendigo,Australia
9.30,1099,BYX,BYX,,7730900.0,-13.2,136.23334,Baniyala,Australia
10,1103,BZD,BZD,YBRN,7668689.0,-34.61667,143.61667,Balranald,Australia
10,1114,BZP,BZP,,8299051.0,-15.216667,144.63333,Bizant,Australia
10,1147,CAZ,CAZ,YCBA,7668696.0,-31.535,145.79333,Cobar,Australia
8,1150,CBC,CBC,,8298689.0,-18.916668,125.55,Cherrabun,Australia
10,1156,CBI,CBI,YCBN,7730903.0,-40.333332,148.16667,Cape Barren Island,Australia
10,1165,CBR,CBR,YSCB,6301342.0,-35.30735,149.19052,Canberra,Australia
10,1171,CBX,CBX,YCDO,7730904.0,-33.86667,148.25,Condobolin,Australia
10,1172,CBY,CBY,YCBE,7730905.0,-19.478611,140.92612,Canobie,Australia
10,1184,CCL,CCL,YCCA,7668698.0,-26.75,150.63333,Chinchilla,Australia
9.30,1194,CCW,CCW,YCWL,7730907.0,-33.63333,136.83333,Cowell,Australia
9.30,1198,CDA,CDA,YCOO,7730908.0,-12.905278,132.5225,Cooinda,Australia
10,1212,CDQ,CDQ,YCRY,7730909.0,-18.3,142.25,Croydon,Australia
10,1216,CDU,CDU,YSCN,6301345.0,-15.45,124.416664,Camden,Australia
9.30,1224,CED,CED,YCDU,6301325.0,-32.12378,133.70122,Ceduna,Australia
10,1237,CES,CES,YCNK,7668703.0,-32.833332,151.35,Cessnock,Australia
9.30,1252,CFH,CFH,,8298823.0,-27.0,139.0,Clifton Hills,Australia
9.30,1253,CFI,CFI,YCFD,7730911.0,-17.033333,131.28334,Camfield,Australia
10,1257,CFP,CFP,,8299057.0,-18.783333,144.35,Carpentaria Downs,Australia
10,1260,CFS,CFS,YSCH,6301343.0,-30.322863,153.1153,Coffs Harbour,Australia
8.45,1284,CGV,CGV,YCAG,7730914.0,-32.266666,125.46667,Caiguna,Australia
8,1316,CIE,CIE,,8298882.0,-33.36667,116.13333,Collie,Australia
9.30,1357,CKI,CKI,YCKI,2078941.0,-11.2,132.53334,Croker Island,Australia
8,1368,CKW,CKW,,0.0,52.430557,-108.74722,Christmas Creek Mine,Australia
10,1376,CLH,CLH,YCAH,7730923.0,-31.833332,149.7,Coolah,Australia
10,1395,CMA,CMA,YCMU,7730248.0,-28.03139,145.6161,Cunnamulla,Australia
10,1398,CMD,CMD,YCTM,7668706.0,-34.628334,148.04333,Cootamundra,Australia
10,1406,CML,CML,YCMW,7730926.0,-19.933332,138.11667,Camooweal,Australia
10,1411,CMQ,CMQ,YCMT,7730247.0,-22.866667,147.5,Clermont,Australia
10,1422,CNB,CNB,YCNM,7668702.0,-30.980833,148.37833,Coonamble,Australia
10,1423,CNC,CNC,YCCT,7730928.0,-10.050179,143.06659,Coconut Island,Australia
10,1430,CNJ,CNJ,YCCY,7668699.0,-20.668905,140.50851,Cloncurry,Australia
10,1438,CNS,CNS,YBCS,2207387.0,-16.876537,145.75404,Cairns,Australia
9.30,1447,COB,COB,,8298691.0,-15.55,130.93333,Coolibah,Australia
10,1455,COJ,COJ,YCBB,7730245.0,-31.337221,149.27194,Coonabarabran,Australia
8,1470,COY,COY,,8298789.0,-21.85,117.75,Coolawanyah,Australia
9.30,1475,CPD,CPD,YCBP,7668697.0,-29.044443,134.75278,Coober Pedy,Australia
10,1495,CQP,CQP,,7730940.0,-18.2,147.5,Cape Flattery,Australia
10,1499,CRB,CRB,YCBR,7730942.0,-29.55,148.58333,Collarenebri,Australia
10,1505,CRH,CRH,,8299227.0,-28.0,152.16667,Cherribah,Australia
9.30,1507,CRJ,CRJ,,7730944.0,-31.9,132.3,Coorabie,Australia
8,1521,CRY,CRY,,7730945.0,-15.466667,128.61667,Carlton Hill,Australia
9.30,1526,CSD,CSD,,7730946.0,-17.966667,135.91667,Cresswell Downs,Australia
10,1530,CSI,CSI,YCAS,7730947.0,-28.883333,153.05833,Casino,Australia
10,1559,CTL,CTL,YBCV,6301295.0,-26.413334,146.25842,Charleville,Australia
10,1561,CTN,CTN,YCKN,7668701.0,-15.443333,145.18333,Cooktown,Australia
9.30,1565,CTR,CTR,,7730952.0,-17.583332,131.0,Cattle Creek,Australia
10,1576,CUD,CUD,YCDR,7730953.0,-26.8,153.15,Caloundra,Australia
10,1579,CUG,CUG,YCUA,7730954.0,-32.0,151.0,Cudal,Australia
10,1589,CUQ,CUQ,YCOE,7730249.0,-13.763889,143.11333,Coen,Australia
8,1597,CUY,CUY,YCUE,7730957.0,-27.45,117.916664,Cue,Australia
9.30,1601,CVC,CVC,YCEE,7730246.0,-33.7,136.5,Cleve,Australia
8,1612,CVQ,CVQ,YCAR,7668695.0,-24.883429,113.66358,Carnarvon,Australia
9.30,1625,CWR,CWR,YCWI,7730963.0,-27.716667,138.33333,Cowarie,Australia
10,1627,CWT,CWT,YCWR,7668707.0,-33.855,148.64667,Cowra,Australia
10,1628,CWW,CWW,YCOR,7668704.0,-35.966667,146.35,Corowa,Australia
8,1641,CXQ,CXQ,,8261068.0,-18.866667,125.916664,Christmas Creek,Australia
10,1643,CXT,CXT,YCHT,7668700.0,-20.046667,146.26917,Charters Towers,Australia
10,1650,CYG,CYG,YCRG,7668705.0,-36.25,147.9,Corryong,Australia
10,1681,CZY,CZY,YUNY,7730964.0,-24.516666,139.53334,Cluny,Australia
10,1690,DAJ,DAJ,,0.0,-9.433333,142.53334,Dauan Island,Australia
10,1710,DBO,DBO,YSDU,6301346.0,-32.218822,148.56956,Dubbo,Australia
10,1717,DBY,DBY,YDAY,7730969.0,-27.15,151.26666,Dalby,Australia
8,1724,DCN,DRB,YCIN,0.0,-17.573702,123.82323,RAAF Curtin,Australia
10,1732,DDI,DDI,,0.0,-20.266666,148.81667,Daydream Island,Australia
10,1734,DDN,DDN,YDLT,7730970.0,-16.916668,141.3,Delta Downs,Australia
10,1755,DFP,DFP,YDDF,7730971.0,-16.0,143.33333,Drumduff,Australia
8,1759,DGD,DGD,,8298742.0,-27.818056,117.30139,Dalgaranga,Australia
10,1760,DGE,DGE,YMDG,7668740.0,-32.566666,149.61667,Mudgee,Australia
10,1774,DHD,DHD,YDRH,7730972.0,-26.1,149.08333,Durham Downs,Australia
10,1810,DKI,DKI,YDKI,6354932.0,-17.941668,146.13667,Dunk Island,Australia
9.30,1815,DKV,DKV,YDVR,7730975.0,-24.866667,129.08333,Docker River,Australia
9.30,1824,DLK,DLK,YDLK,7730976.0,-29.016666,139.46666,Dulkaninna,Australia
9.30,1831,DLV,DLV,YDLV,7730977.0,-12.566667,130.63333,Delissaville,Australia
10,1836,DMD,DMD,YDMG,7730978.0,-17.939201,138.8216,Doomadgee,Australia
10,1847,DNB,DNB,YDBR,7730980.0,-16.010834,142.39055,Dunbar,Australia
8,1851,DNG,DNG,,8298809.0,-15.383333,126.3,Doongan,Australia
8,1856,DNM,DNM,YSHK,7730274.0,-25.916668,113.53333,Denham,Australia
10,1860,DNQ,DNQ,YDLQ,2169068.0,-35.56,144.95166,Deniliquin,Australia
8,1886,DOX,DOX,,2072691.0,-29.25,114.933334,Dongara,Australia
10,1892,DPO,DPO,YDPO,7668708.0,-41.172054,146.42754,Devonport,Australia
8,1896,DRB,DRB,YDBY,7730252.0,-17.373333,123.6525,Derby,Australia
10,1898,DRD,DRD,YDOR,7730988.0,-16.5,142.33333,Dorunda Station,Australia
10,1906,DRN,DRN,YDBI,7730251.0,-28.586666,148.21527,Dirranbandi,Australia
10,1908,DRR,DRR,YDRI,7730990.0,-25.616667,140.21666,Durrie,Australia
9.30,1913,DRW,DRW,YPDN,2079721.0,-12.407805,130.87752,Darwin,Australia
8,1915,DRY,DRY,,8298811.0,-15.666667,126.416664,Drysdale River,Australia
10,1957,DVP,DVP,YDPD,7730992.0,-24.133333,141.11667,Davenport Downs,Australia
9.30,1958,DVR,DVR,YDMN,7730993.0,-13.75,130.68333,Daly River,Australia
10,1967,DXD,DXD,,2168690.0,-15.166667,143.66667,Dixie,Australia
10,1969,DYA,DYA,YDYS,7730253.0,-23.5,148.0,Dysart,Australia
10,1972,DYM,DYM,,7730995.0,-26.75,139.16667,Diamantina Lakes,Australia
9.30,1976,DYW,DYW,,8260800.0,-16.25,133.4,Daly Waters,Australia
10,2008,ECH,ECH,YECH,7668709.0,-36.15,144.75,Echuca,Australia
9.30,2016,EDD,EDD,,7730998.0,-25.25,133.2,Erldunda,Australia
10,2026,EDR,EDR,YPMP,7730999.0,-14.9,141.61667,Edward River,Australia
10,2060,EIH,EIH,YEIN,7731000.0,-18.5,144.1,Einasleigh,Australia
9.30,2071,EKD,EKD,,7731001.0,-21.15,135.55,Elkedra,Australia
9.30,2081,ELC,ELC,YELD,7730254.0,-12.019817,135.5698,Elcho Island,Australia
10,2107,EMD,EMD,YEML,7668710.0,-23.56861,148.1744,Emerald,Australia
8,2122,ENB,ENB,YEEB,7731004.0,-30.083332,114.98333,Eneabba West,Australia
8,2153,EPR,EPR,YESP,7668711.0,-33.68248,121.83039,Esperance,Australia
9.30,2159,ERB,ERB,YERN,7731008.0,-26.283333,132.11667,Ernabella,Australia
10,2171,ERQ,ERQ,,0.0,-20.976667,141.0086,Elrose Mine,Australia
9.30,2199,ETD,ETD,YEDA,7731014.0,-27.5,138.0,Etadunna,Australia
8.45,2207,EUC,EUC,YECL,7731015.0,-31.716667,128.86667,Eucla,Australia
9.30,2216,EVD,EVD,YEVA,7731016.0,-18.016666,134.86667,Eva Downs,Australia
10,2219,EVH,EVH,YEVD,7668712.0,-29.1,153.41667,Evans Head,Australia
8,2234,EXM,EXM,,7731018.0,-22.25,114.25,Exmouth Gulf,Australia
9.30,2322,FIK,FIK,YFNE,7731023.0,-25.566668,134.58333,Finke,Australia
8,2326,FIZ,FIZ,YFTZ,7730256.0,-18.178333,125.55417,Fitzroy Crossing,Australia
10,2337,FLC,FLC,,2166893.0,-36.833332,143.28334,Falls Creek,Australia
10,2350,FLS,FLS,YFLI,7731030.0,-40.095,147.99667,Flinders Island,Australia
10,2355,FLY,FLY,,2166675.0,-35.65,145.58333,Finley,Australia
8,2393,FOS,FOS,YPFT,6301330.0,-30.816668,128.05,Forrest,Australia
10,2394,FOT,FOT,YFST,7731032.0,-32.183334,151.51666,Forster,Australia
10,2402,FRB,FRB,YFBS,7730255.0,-33.4,148.05,Forbes,Australia
8,2428,FSL,FSL,,8299136.0,-18.2,125.8,Fossil Downs,Australia
8,2454,FVL,FVL,,8298851.0,-18.283333,128.41667,Flora Valey,Australia
8,2456,FVR,FVR,,8298873.0,-15.253056,127.833336,Forrest River Airport,Australia
10,2477,GAH,GAH,YGAY,7731039.0,-25.433332,151.48334,Gayndah,Australia
9.30,2507,GBL,GBL,,2078934.0,-11.55,133.43333,Goulburn Island,Australia
10,2511,GBP,GBP,,8298980.0,-16.55,143.66667,Gamboola,Australia
8,2516,GBV,GBV,YGIB,7731043.0,-15.65,126.63333,Gibb River,Australia
8,2532,GDD,GDD,YGDN,7731045.0,-18.716667,128.55,Gordon Downs,Australia
10,2553,GEE,GEE,YGTO,7731049.0,-18.283333,143.55,George Town,Australia
8,2563,GET,GET,YGEL,6301331.0,-28.796078,114.70205,Geraldton,Australia
10,2566,GEX,GEX,YGLG,7668715.0,-38.13333,144.35,Geelong,Australia
10,2571,GFE,GFE,,2164457.0,-33.9,148.18333,Grenfell,Australia
10,2572,GFF,GFF,YGTH,7668717.0,-34.255432,146.0627,Griffith,Australia
10,2575,GFN,GFN,YGFN,7668714.0,-29.759521,153.02834,Grafton,Australia
10,2581,GGD,GGD,YGDS,7731053.0,-18.633333,139.23334,Gregory Downs,Australia
10,2601,GIC,GIC,YBOI,7731054.0,-9.233333,142.21666,Boigu Island,Australia
10,2623,GKL,GKL,,8298684.0,-23.183332,150.94167,Great Keppel Island,Australia
10,2633,GLG,GLG,YGLE,7731059.0,-24.816668,139.6,Glengyle,Australia
10,2635,GLI,GLI,YGLI,7668716.0,-29.676666,151.69083,Glen Innes,Australia
10,2638,GLM,GLM,YGLO,7731061.0,-22.916668,138.83333,Glenormiston,Australia
10,2645,GLT,GLT,YGLA,7910182.0,-23.87147,151.22351,Gladstone,Australia
8,2649,GLY,GLY,,2070704.0,-20.083332,119.666664,Goldsworthy,Australia
10,2695,GOO,GOO,YGDI,7731066.0,-28.524445,150.31944,Goondiwindi,Australia
10,2699,GOS,GOS,,2164849.0,-33.433334,151.35,Gosford,Australia
9.30,2702,GOV,GOV,YPGV,6301306.0,-12.269595,136.82265,Nhulunbuy,Australia
10,2707,GPD,GPD,,0.0,-19.999445,139.91777,Mount Gordon Mine,Australia
9.30,2710,GPN,GPN,YGPT,7730258.0,-11.766667,130.01666,Garden Point,Australia
8,2744,GSC,GSC,,8260817.0,-25.166668,115.25,Gascoyne Junction,Australia
9.30,2751,GSN,GSN,YMGN,7731071.0,-31.666668,137.76666,Mount Gunson,Australia
9.30,2761,GTE,GTE,YGTE,7730259.0,-13.973887,136.46002,Alyangula,Australia
9.30,2770,GTS,GTS,YGDW,7731075.0,-26.966667,133.61667,Granites,Australia
10,2771,GTT,GTT,YGTN,7731076.0,-18.416668,143.78334,Georgetown,Australia
10,2781,GUH,GUH,YGDH,7668713.0,-30.95,150.23334,Gunnedah,Australia
10,2784,GUL,GUL,YGLB,7730257.0,-34.75,149.71666,Goulburn,Australia
10,2804,GVP,GVP,YGNV,7731079.0,-15.783333,144.61667,Greenvale,Australia
8,2826,GYL,GYL,YARG,7668681.0,-16.333332,128.66667,Argyle,Australia
10,2829,GYP,GYP,YGYM,7668718.0,-26.183332,152.63333,Gympie,Australia
10,2854,HAP,HAP,,0.0,-20.5,148.75,Long Island,Australia
10,2863,HBA,HBA,YMHB,6301313.0,-42.837257,147.50519,Hobart,Australia
8,2883,HCQ,HCQ,YHLC,7668721.0,-18.233334,127.666664,Halls Creek,Australia
10,2922,HGD,HGD,YHUG,7731083.0,-20.81889,144.22444,Hughenden,Australia
10,2944,HID,HID,YHID,7668720.0,-10.583333,142.28334,Horn Island,Australia
10,2947,HIG,HIG,,7731085.0,-16.416668,143.15,Highbury,Australia
10,2948,HIH,HIH,,0.0,-20.166668,148.95,Hook Island,Australia
10,2956,HIP,HIP,YHDY,7731086.0,-21.316668,138.28334,Headingly,Australia
10,2958,HIS,HIS,YHYN,7731087.0,-20.066668,148.86667,Hayman Island,Australia
8,2982,HLL,HLL,,8298718.0,-21.783333,119.333336,Hillside,Australia
10,2987,HLS,HLS,YSTH,7668773.0,-41.266666,148.25,St Helens,Australia
10,2988,HLT,HLT,YHML,7730260.0,-37.65,142.06056,Hamilton,Australia
10,2990,HLV,HLV,,7731090.0,-15.683333,145.2,Helenvale,Australia
9.30,2997,HMG,HMG,YHMB,7731091.0,-23.95,132.75,Hermannsburg,Australia
9.30,3029,HOK,HOK,YHOO,7731093.0,-18.335,130.6325,Hooker Creek,Australia
10,3046,HPE,HPE,,8219775.0,-14.666667,144.91667,Hope Vale,Australia
10,3063,HRN,HRN,,6354955.0,-23.433332,151.91667,Heliport,Australia
9.30,3068,HRY,HRY,,8298715.0,-24.583332,133.25,Henbury,Australia
10,3077,HSM,HSM,YHSM,7668724.0,-36.666668,142.16667,Horsham,Australia
10,3088,HTI,HTI,YBHM,7730241.0,-20.35175,148.94847,Hamilton Island,Australia
10,3095,HTU,HTU,YHPN,7668723.0,-35.7,142.36667,Hopetoun,Australia
9.30,3101,HUB,HUB,YHBR,7731096.0,-16.5,130.75,Humbert River,Australia
10,3124,HVB,HVB,YHBA,6354957.0,-25.319868,152.88521,Hervey Bay,Australia
9.30,3136,HWK,HWK,YHAW,7731098.0,-31.716667,138.41667,Wilpena Pound,Australia
10,3139,HXX,HXX,YHAY,7668719.0,-34.516666,144.83333,Hay,Australia
9.30,3196,IDK,IDK,YIDK,7731103.0,-26.966667,133.325,Indulkana,Australia
10,3207,IFF,IFF,YIFY,7731105.0,-18.9,141.21666,Iffley,Australia
10,3210,IFL,IFL,YIFL,7731106.0,-17.55,146.01666,Innisfail,Australia
10,3219,IGH,IGH,YIGM,7731107.0,-18.716667,146.16667,Ingham,Australia
10,3247,IKP,IKP,YIKM,7731112.0,-16.25,141.5,Inkerman,Australia
10,3292,INJ,INJ,KINJ,7731115.0,-25.883333,148.53334,Injune,Australia
9.30,3295,INM,INM,YINN,7731116.0,-27.75,140.73334,Innamincka,Australia
10,3340,IRG,IRG,YLHR,7668732.0,-12.788889,143.3125,Lockhart River,Australia
10,3353,ISA,ISA,YBMA,6301298.0,-20.667637,139.49179,Mount Isa,Australia
10,3360,ISI,ISI,YISF,7731121.0,-24.263332,144.42334,Isisford,Australia
10,3395,IVR,IVR,YIVL,7668725.0,-29.883896,151.14056,Inverell,Australia
9.30,3396,IVW,IVW,YINW,7731126.0,-17.833332,129.63333,Inverway,Australia
9.30,3431,JAB,JAB,YJAB,7731130.0,-12.659722,132.89194,Jabiru,Australia
8,3433,JAD,PER,YPJT,6940992.0,-32.083332,115.88333,Jandakot,Australia
10,3467,JCK,JCK,YJLC,7731134.0,-20.583332,141.7,Julia Creek,Australia
8,3499,JFM,JFM,,2071223.0,-32.05,115.75,Heliport,Australia
10,3642,JUN,JUN,YJDA,7731149.0,-24.833332,143.06667,Jundah,Australia
8,3645,JUR,JUR,YJNB,7731150.0,-30.266666,115.05,Jurien Bay,Australia
10,3669,KAH,MEL,,0.0,-37.816666,144.96666,City Heliport,Australia
8,3685,KAX,KAX,YKBR,7668726.0,-27.866667,114.13333,Kalbarri,Australia
9.30,3689,KBB,KBB,YKIR,7731154.0,-17.766666,129.21666,Kirkimbie,Australia
8,3691,KBD,KBD,,7731155.0,-17.333332,124.35,Kimberley Downs,Australia
9.30,3697,KBJ,KBJ,YKCA,6354960.0,-24.25,131.49445,Kings Canyon,Australia
9.30,3712,KBY,KBY,YKBY,7668727.0,-33.0,134.0,Streaky Bay,Australia
10,3718,KCE,KCE,YCSV,7731159.0,-20.55,147.86667,Collinsville,Australia
9.30,3732,KCS,KCS,YKCS,7731162.0,-24.383333,131.68333,Kings Creek Station,Australia
8,3737,KDB,KDB,,2068792.0,-30.0,120.0,Kambalda,Australia
10,3752,KDS,KDS,,8299027.0,-24.333332,139.16667,Kamaran Downs,Australia
8,3787,KFE,KFE,,8298701.0,-22.2833,119.433,Fortescue Dave Forrest,Australia
9.30,3788,KFG,KFG,YKKG,7731167.0,-17.433332,130.81667,Kalkurung,Australia
9.30,3792,KGC,KGC,YKSC,6453413.0,-35.709305,137.52332,Kingscote,Australia
8,3798,KGI,KGI,YPKG,6301332.0,-30.785246,121.45792,Kalgoorlie,Australia
9.30,3806,KGR,KGR,,7731169.0,-25.833332,133.03334,Kulgera,Australia
10,3812,KGY,KGY,YKRY,7730263.0,-26.55,151.83333,Kingaroy,Australia
10,3877,KKP,KKP,YKLB,7731176.0,-15.583333,143.95,Koolburra,Australia
10,3920,KML,KML,YKML,7731178.0,-19.366667,140.05,Kamileroi,Australia
8,3941,KNI,KNI,YKNG,7731179.0,-33.7,117.55,Katanning,Australia
10,3950,KNS,KNS,YKII,7668729.0,-39.879776,143.88168,King Island,Australia
8,3955,KNX,KNX,YPKU,6301333.0,-15.784031,128.71268,Kununurra,Australia
10,3964,KOH,KOH,,7731183.0,-15.966667,142.41667,Koolatah,Australia
10,3996,KPP,KPP,,2161974.0,-19.966667,143.93333,Kalpowar,Australia
10,3998,KPS,KPS,YKMP,7730261.0,-31.083332,152.76666,Kempsey,Australia
10,4005,KRA,KRA,YKER,7668728.0,-35.666668,143.91667,Kerang,Australia
10,4006,KRB,KRB,YKMB,7731185.0,-17.456667,140.83194,Karumba,Australia
9.30,4008,KRD,KRD,,8261031.0,-20.516666,134.66667,Kurundi,Australia
10,4050,KSV,KSV,YSPV,7731193.0,-23.55,140.68333,Springvale,Australia
8,4055,KTA,KTA,YPKA,7668758.0,-20.70826,116.77006,Karratha,Australia
9.30,4070,KTR,KTR,YPTN,6301338.0,-14.4575,132.2714,Tindal,Australia
10,4083,KUG,KUG,YKUB,7731197.0,-10.233333,142.3,Kubin Island,Australia
10,4125,KWM,KWM,YKOW,7730262.0,-15.4875,141.74834,Kowanyama,Australia
8,4143,KYF,KYF,,7731202.0,-27.277779,120.075,Yeelirrie,Australia
9.30,4144,KYI,KYI,YYTA,7731203.0,-31.483334,131.86667,Yalata Mission,Australia
10,4199,LBH,SYD,,0.0,-33.944168,151.17583,Palm Beach SPB,Australia
9.30,4231,LCN,LCN,YBLC,7731212.0,-30.516666,139.35,Balcanoona,Australia
10,4243,LDC,LDC,YLIN,7731216.0,-21.0,149.0,Lindeman Island,Australia
10.30,4246,LDH,LDH,YLHI,7668731.0,-31.540808,159.07816,Lord Howe Island,Australia
8,4257,LDW,LDW,,8260847.0,-17.883333,126.65,Lansdowne,Australia
8,4261,LEA,LEA,YPLM,2079404.0,-22.239883,114.09427,Learmonth,Australia
9.30,4272,LEL,LEL,YLEV,7731217.0,-12.508333,135.8,Lake Evella,Australia
8,4278,LER,LER,YLST,7668735.0,-27.833332,120.61667,Leinster,Australia
10,4293,LFP,LFP,,8299050.0,-15.05,144.00555,Lakefield,Australia
8,4301,LGE,LGE,,8224836.0,-20.133333,127.566666,Lake Gregory,Australia
9.30,4304,LGH,LGH,YLEC,6301334.0,-30.466667,138.41667,Leigh Creek,Australia
10,4324,LHG,LHG,YLRD,7668734.0,-29.458332,147.98334,Lightning Ridge,Australia
9.30,4334,LIB,LIB,,7731223.0,-17.2,129.8,Limbunya,Australia
10,4365,LKD,LKD,,8298958.0,-15.816667,144.95,Lakeland Downs,Australia
10,4386,LLG,LLG,YCGO,2171623.0,-17.133333,144.53334,Chillagoe,Australia
8,4390,LLL,LLL,,8299067.0,-16.566668,128.63333,Lissadell,Australia
10,4393,LLP,LLP,,8299152.0,-23.166668,138.7,Linda Downs,Australia
9.30,4428,LNH,LNH,,8298902.0,-20.95,138.0,Lake Nash,Australia
8,4434,LNO,LNO,YLEO,7668730.0,-28.879345,121.316925,Leonora,Australia
10,4442,LOA,LOA,YLOR,7731234.0,-19.0,139.9,Lorraine,Australia
9.30,4444,LOC,LOC,YLOK,7731235.0,-33.55,135.75,Lock,Australia
10,4494,LRE,LRE,YBLR,6301297.0,-23.439474,144.27147,Longreach,Australia
10,4528,LST,LST,YMLT,6301314.0,-41.54351,147.20532,Launceston,Australia
10,4533,LSY,LSY,YLIS,7668733.0,-28.836653,153.26337,Lismore,Australia
10,4536,LTB,LTB,YLTV,7668737.0,-41.233334,146.4,Latrobe,Australia
10,4547,LTP,LTP,YLHS,7731241.0,-30.283333,138.35,Lyndhurst,Australia
10,4553,LTV,LTV,YLOV,7731242.0,-17.05,141.38333,Lotusvale,Australia
10,4575,LUT,LUT,YLRS,7731244.0,-15.433333,144.81667,Laura Station,Australia
10,4576,LUU,LUU,YLRA,7731245.0,-15.666667,144.16667,Laura,Australia
8,4588,LVO,LVO,YLTN,7668736.0,-28.633333,122.36667,Laverton,Australia
10,4596,LWH,LWH,YLAH,7731249.0,-18.583332,138.58333,Lawn Hill,Australia
10,4628,LYT,LYT,,8260970.0,-24.116667,152.7,Lady Elliot Island,Australia
10,4638,LZR,LZR,YLZI,6354938.0,-14.666667,145.46666,Lizard Island,Australia
8,4668,MBB,MBB,YMBL,7731256.0,-21.25,119.583336,Marble Bar,Australia
10,4672,MBF,MBF,,0.0,-36.75,146.75,Mount Buffalo,Australia
10,4674,MBH,MBH,YMYB,7668748.0,-25.516666,152.71333,Maryborough,Australia
8,4680,MBN,MBN,,8298871.0,-15.0,125.0,Mt Barnett,Australia
10,4689,MBW,MEL,YMMB,6301316.0,-37.975834,145.10222,Moorabbin,Australia
9.30,4714,MCV,MCV,YMHU,7910449.0,-16.466667,136.095,Mcarthur River,Australia
10,4717,MCY,MCY,YBMC,7668691.0,-26.60538,153.08821,Maroochydore,Australia
10,4746,MEB,MEL,YMEN,6301311.0,-37.736668,144.8975,Essendon,Australia
10,4756,MEL,MEL,YMML,6290242.0,-37.669613,144.84978,Melbourne - Tullamarine Airport,Australia
10,4764,MET,MET,YMOT,7731263.0,-12.75,142.76666,Moreton,Australia
10,4782,MFL,MFL,,8298786.0,-19.666668,144.9,Mount Full Stop,Australia
9.30,4786,MFP,MFP,YMCR,7731264.0,-22.1,137.98334,Manners Creek,Australia
9.30,4797,MGB,MGB,YMTG,7668746.0,-37.744072,140.78271,Mount Gambier,Australia
9.30,4813,MGT,MGT,YMGB,7731268.0,-12.093703,134.89352,Milingimbi,Australia
8,4815,MGV,MGV,YMGR,7910395.0,-18.616667,126.86667,Margaret River,Australia
8,4833,MHO,MHO,YMHO,7731272.0,-17.133333,125.76667,Mount House,Australia
10,4839,MHU,MHU,YHOT,7668722.0,-36.966667,147.18333,Mount Hotham,Australia
8,4852,MIH,MIH,,0.0,-26.483334,147.96666,Mitchell Plateau,Australia
10,4856,MIM,MIM,YMER,7668741.0,-36.910046,149.90202,Merimbula,Australia
9.30,4857,MIN,MIN,YMPA,7731274.0,-32.833332,134.83333,Minnipa,Australia
9.30,4868,MIY,MIY,,8299234.0,-18.81,137.08,Mittiebah,Australia
9.30,4869,MIZ,MIZ,,8298954.0,-14.0,134.1,Mainoru,Australia
8,4879,MJK,MJK,YSHK,2065971.0,-25.888159,113.57695,Shark Bay,Australia
8,4884,MJP,MJP,YMJM,7731275.0,-34.233334,116.1,Manjimup,Australia
8,4911,MKR,MKR,YMEK,6301335.0,-26.61113,118.54596,Meekatharra,Australia
9.30,4915,MKV,MKV,,8299181.0,-25.966667,133.25,Mt Cavenagh,Australia
10,4917,MKY,MKY,YBMK,6301299.0,-21.176285,149.1818,Mackay,Australia
9.30,4936,MLR,MLR,YMCT,7731279.0,-37.483334,140.01666,Millicent,Australia
10,4940,MLV,MLV,,8298878.0,-13.016667,142.98334,Merluna,Australia
8,4950,MMG,MMG,YMOG,7668742.0,-28.083332,117.85,Mount Magnet,Australia
10,4956,MMM,MMM,YMMU,7731280.0,-22.8025,148.70473,Middlemount,Australia
9.30,4974,MNE,MNE,YMUG,7731282.0,-28.0,138.6,Mungeranie,Australia
9.30,4976,MNG,MNG,YMGD,7730264.0,-12.05492,134.23227,Maningrida,Australia
10,4985,MNQ,MNQ,YMTO,7731284.0,-24.883333,151.1,Monto,Australia
9.30,4990,MNV,MNV,,8260870.0,-14.116667,133.83333,Mountain Valley,Australia
9.30,5006,MOO,MOO,YOOM,7731286.0,-27.5,149.83333,Moomba,Australia
10,5013,MOV,MOV,YMRB,7730266.0,-22.06057,148.07442,Moranbah,Australia
8,5042,MQA,MQA,YMDI,7731288.0,-19.75,120.833336,Mandora,Australia
9.30,5046,MQE,MQE,YMQA,7731289.0,-22.816668,137.35,Marqua,Australia
10,5052,MQL,MQL,YMIA,6301318.0,-34.230835,142.08455,Mildura,Australia
8,5066,MQZ,MQZ,YMGT,7731270.0,-33.933334,115.1,Margaret River,Australia
10,5073,MRG,MRG,YMBA,7668738.0,-17.0,145.46666,Mareeba,Australia
10,5077,MRL,MRL,,8298774.0,-20.066668,145.58333,Miners Lake,Australia
9.30,5081,MRP,MRP,YALA,7731293.0,-27.0,135.0,Marla,Australia
9.30,5085,MRT,MRT,,8260865.0,-14.483333,133.41667,Moroak,Australia
10,5091,MRZ,MRZ,YMOR,7668743.0,-29.496346,149.85019,Moree,Australia
9.30,5096,MSF,MSF,,8298986.0,-22.516666,135.0,Mount Swan,Australia
9.30,5120,MTD,MTD,YMSF,7731296.0,-17.0,130.56667,Mt Sandford,Australia
10,5128,MTL,MTL,YMND,7731298.0,-32.733334,151.55,Maitland,Australia
10,5133,MTQ,MTQ,YMIT,7731299.0,-26.583332,147.96666,Mitchell,Australia
8,5157,MUQ,MUQ,YMUC,7731304.0,-20.666668,120.0,Muccan,Australia
10,5174,MVH,MVH,,2159194.0,-30.75,152.9,Macksville,Australia
9.30,5175,MVK,MVK,YMUK,7731305.0,-27.25,138.0,Mulka,Australia
10,5185,MVU,MVU,,8298781.0,-14.166667,143.68333,Musgrave,Australia
8,5192,MWB,MWB,,7731307.0,-29.204166,116.0225,Morawa,Australia
9.30,5210,MWT,MWT,,8298794.0,-28.5,138.0,Moolawatana,Australia
10,5214,MWY,MWY,,7731310.0,-25.783333,141.51666,Miranda Downs,Australia
10,5219,MXD,MXD,YMWX,7731312.0,-23.333332,139.6,Marion Downs,Australia
8,5235,MXU,MXU,YMWA,7731313.0,-28.55,115.51667,Mullewa,Australia
10,5241,MYA,MYA,YMRY,7668744.0,-35.90251,150.14717,Moruya,Australia
10,5249,MYI,MYI,YMUI,7668747.0,-9.920066,144.06497,Murray Island,Australia
8,5255,MYO,MYO,,7731317.0,-18.116667,124.26667,Myroodah,Australia
10,5291,NAA,NAA,YNBR,7668749.0,-30.31829,149.82912,Narrabri,Australia
9.30,5293,NAC,NAC,YNRC,7731321.0,-36.95,140.83333,Naracoorte,Australia
10,5322,NBH,NBH,YNHS,7731328.0,-30.633333,152.98334,Nambucca Heads,Australia
8,5364,NDS,NDS,YSAN,7731332.0,-27.983334,119.3,Sandstone,Australia
10,5388,NGA,NGA,YYNG,7668787.0,-34.25,148.25,Young,Australia
8,5417,NIF,NIF,YCNF,7731333.0,-21.675,121.58611,Nifty,Australia
10,5451,NLF,NLF,YDNI,7731335.0,-9.584515,143.7869,Darnley Island,Australia
8,5454,NLL,NLL,YNUL,7731336.0,-21.75,120.2,Nullagine,Australia
8,5458,NLS,NLS,YNIC,7731337.0,-18.050833,128.89583,Nicholson,Australia
10,5469,NMP,NMP,,8298780.0,-20.166668,143.96666,New Moon,Australia
10,5470,NMR,NMR,YNAP,7731338.0,-27.6,141.11667,Nappa Merry,Australia
10,5487,NOA,NOA,YSNW,6301348.0,-34.950558,150.5375,Nowra,Australia
9.30,5513,NPP,NPP,,8260874.0,-22.5,132.68333,Napperby,Australia
10,5525,NRA,NRA,YNAR,7730267.0,-34.705643,146.5117,Narrandera,Australia
8,5529,NRG,NRG,,8261003.0,-32.933334,117.166664,Narrogin,Australia
9.30,5538,NRY,NRY,,8298705.0,-16.016666,129.23334,Newry,Australia
8,5546,NSM,NSM,YNSM,7731345.0,-32.2,121.75,Norseman,Australia
10,5548,NSO,NSO,YSCO,7731346.0,-32.03611,150.8325,Scone,Australia
10,5551,NSV,NSV,YNSH,7731347.0,-26.416668,153.03334,Noosaville,Australia
10,5562,NTL,NTL,YWLM,7910156.0,-32.804592,151.84006,Williamtown,Australia
10,5564,NTN,NTN,YNTN,7730269.0,-17.685398,141.07307,Normanton,Australia
9.30,5573,NUB,NUB,YNUM,7731350.0,-14.271667,135.71638,Numbulwar,Australia
9.30,5586,NUR,NUR,YNUB,7731351.0,-31.433332,130.91667,Nullarbor,Australia
10,5617,NYN,NYN,YNYN,7668752.0,-31.566668,147.18333,Nyngan,Australia
10,5627,OAG,OAG,YORG,7668754.0,-33.3816,149.12447,Springhill,Australia
10,5639,OBA,OBA,,2154542.0,-21.0,139.0,Oban,Australia
9.30,5668,ODD,ODD,YOOD,7731357.0,-27.550278,135.45,Oodnadatta,Australia
9.30,5672,ODL,ODL,,8298945.0,-26.716667,140.63333,Cordillo Downs,Australia
8,5675,ODR,ODR,YORV,7731359.0,-17.5,128.8,Ord River,Australia
10,5721,OKB,OKB,,7731361.0,-25.25,153.16667,Fraser Island,Australia
10,5737,OKR,OKR,YYKI,7731365.0,-9.751593,143.40556,Yorke Island,Australia
10,5742,OKY,OKY,YBOK,6301300.0,-27.406668,151.735,Oakey,Australia
9.30,5757,OLP,OLP,YOLD,7668753.0,-30.483898,136.88411,Olympic Dam,Australia
10,5784,ONG,ONG,YMTI,7731367.0,-16.662558,139.17004,Mornington,Australia
10,5794,ONR,ONR,YMNK,7731369.0,-24.816668,140.56667,Monkira,Australia
8,5795,ONS,ONS,YOLW,8261072.0,-21.666668,115.1,Onslow,Australia
10,5802,OOL,OOL,YBCG,6301293.0,-28.166164,153.51314,Gold Coast (coolangatta),Australia
10,5803,OOM,OOM,YCOM,7730250.0,-36.308334,148.97333,Cooma,Australia
10,5804,OOR,OOR,YMOO,7731370.0,-25.05,141.23334,Mooraberree,Australia
9.30,5809,OPI,OPI,YOEN,7731371.0,-12.333333,133.06667,Oenpelli,Australia
9.30,5832,ORR,ORR,YYOR,7731374.0,-35.033333,137.58333,Yorketown,Australia
10,5833,ORS,ORS,,8299176.0,-18.633333,146.48334,Waterport,Australia
10,5852,OSO,OSO,YOSB,8260869.0,-22.08254,140.55779,Osborne Mine,Australia
10,5912,OXO,OXO,,8298783.0,-27.666668,141.33333,Orientos,Australia
10,5914,OXY,OXY,YMNY,7731378.0,-25.35,141.36667,Morney,Australia
10,5920,OYN,OYN,,8261038.0,-35.066666,142.33333,Ouyen,Australia
8,5972,PBO,PBO,APPB,7668756.0,-23.173908,117.748,Paraburdoo,Australia
10,5982,PBY,PBY,,0.0,-20.283333,148.83333,Hamilton/Proserpine,Australia
9.30,6009,PDE,PDE,YPDI,7731391.0,-26.0,138.66667,Pandie Pandie,Australia
9.30,6015,PDN,PDN,,8298932.0,-35.916668,138.08333,Parndana,Australia
9.30,6025,PEA,PEA,YPSH,7731394.0,-35.733334,137.93333,Penneshaw,Australia
9.30,6039,PEP,PEP,,7731395.0,-14.15,130.1,Peppimenarti,Australia
8,6041,PER,PER,YPPH,2079187.0,-31.933603,115.960236,Perth International,Australia
9.30,6048,PEY,PEY,,2063588.0,-31.916668,133.01666,Penong,Australia
8,6084,PHE,PHE,YPPD,6301336.0,-20.377945,118.63164,Port Hedland,Australia
10,6089,PHJ,NTL,,0.0,-32.916668,151.76666,Port Hunter,Australia
10,6137,PKE,PKE,YPKS,7668759.0,-33.138454,148.2329,Parkes,Australia
9.30,6150,PKT,PKT,YPKT,7668760.0,-14.25,129.53334,Port Keats,Australia
9.30,6167,PLO,PLO,YPLC,7668761.0,-34.603333,135.87454,Port Lincoln,Australia
10,6188,PMK,PMK,YPAM,7668755.0,-18.333332,146.66667,Palm Island,Australia
9.30,6259,PPI,PPI,YPIR,7730271.0,-33.233334,138.0,Port Pirie,Australia
10,6266,PPP,PPP,YBPN,6301301.0,-20.488922,148.55194,Whitsunday Coast,Australia
10,6281,PQQ,PQQ,YPMQ,7668762.0,-31.431402,152.86723,Port Macquarie,Australia
8,6287,PRD,PRD,YPDO,7731411.0,-20.1,119.11667,Pardoo,Australia
10,6343,PTI,PTI,,2152681.0,-16.48611,145.46388,Port Douglas,Australia
10,6344,PTJ,PTJ,YPOR,7730272.0,-38.384167,141.625,Portland,Australia
9.30,6367,PUG,PUG,YPAG,7730270.0,-32.5,137.76666,Port Augusta,Australia
9.30,6414,PXH,PXH,YPMH,8260756.0,-29.72108,135.52348,Prominent Hill,Australia
10,6488,QLE,QLE,,2160413.0,-34.55105,146.40483,Leeton Bus Station,Australia
10,6505,QPV,QPV,,0.0,0.0,0.0,Perisher Valley Bus Station,Australia
10,6529,QTH,QTH,,0.0,0.0,0.0,Thredbo Bus Station,Australia
10,6542,QWL,QWL,,0.0,0.0,0.0,Crackenback Village Bus Station,Australia
10,6570,QZC,QZC,,0.0,0.0,0.0,Smiggin Holes Bus Station,Australia
10,6573,QZM,QZM,,0.0,0.0,0.0,Bullocks Flat Bus Station,Australia
9.30,6585,RAM,RAM,YRNG,7731452.0,-12.0,134.81667,Ramingining,Australia
10,6599,RBC,RBC,YROI,7668765.0,-34.666668,142.75,Robinvale,Australia
10,6615,RBS,RBS,YORB,7731455.0,-37.7,148.5,Orbost,Australia
8,6617,RBU,RBU,YROE,7731456.0,-20.8,117.166664,Roebourne,Australia
10,6629,RCM,RCM,YSRI,7668764.0,-20.70389,143.11667,Richmond,Australia
9.30,6638,RDA,RDA,,7731457.0,-18.95,135.16667,Rockhampton Downs,Australia
8,6696,RHL,RHL,,8298810.0,-22.75,120.0,Roy Hill,Australia
10,6742,RKY,RKY,,8298680.0,-13.166667,143.43333,Rokeby,Australia
10,6750,RLP,RLP,,8299111.0,-18.0,145.0,Rosella Plains,Australia
10,6754,RMA,RMA,YROM,6453434.0,-26.543552,148.77943,Roma,Australia
9.30,6761,RMK,RMK,YREN,7668763.0,-34.2,140.68333,Renmark,Australia
10,6794,ROH,ROH,YROB,7731466.0,-18.25,144.0,Robinhood,Australia
10,6796,ROK,ROK,YBRK,6301302.0,-23.377993,150.47841,Rockhampton,Australia
9.30,6810,RPB,RPB,,8299131.0,-14.733333,134.73334,Roper Bar,Australia
9.30,6811,RPM,RPM,YNGU,7730268.0,-14.933333,134.0,Ngukurr,Australia
9.30,6814,RPV,RPV,,8261048.0,-14.966667,134.03334,Roper Valley,Australia
9.30,6818,RRE,RRE,YMRE,7731468.0,-29.65,138.06667,Marree,Australia
9.30,6829,RRV,RRV,,8261041.0,-16.75,136.96666,Robinson River,Australia
10,6831,RSB,RSB,YRSB,7731469.0,-25.833332,139.63333,Roseberth,Australia
10,6833,RSE,SYD,,0.0,-33.8,151.21666,Rose Bay,Australia
10,6857,RTP,RTP,YRTP,7731472.0,-15.6,141.83333,Rutland Plains,Australia
8,6858,RTS,RTS,YRTI,7668766.0,-32.006943,115.53667,Rottnest Island,Australia
9.30,6860,RTY,RTY,YMYT,7731473.0,-28.25,139.0,Merty,Australia
8,6887,RVT,RVT,YNRV,8260894.0,-33.785557,120.201385,Ravensthorpe,Australia
10,6949,SBR,SBR,,0.0,-9.383333,142.63333,Saibai Island,Australia
10,6963,SCG,SCG,YSPK,7731484.0,-38.016666,142.41667,Spring Creek,Australia
10,7039,SFP,SFP,,2147849.0,-28.0,153.0,Surfers Paradise,Australia
10,7062,SGO,SGO,YSGE,7668767.0,-28.053333,148.59389,St George,Australia
8,7063,SGP,SGP,YSHG,7731489.0,-20.816668,120.23333,Shay Gap,Australia
10,7089,SHQ,SHQ,YSPT,7668771.0,-27.951944,153.42778,Southport,Australia
10,7092,SHT,SHT,YSHT,7668768.0,-36.38333,145.43333,Shepparton,Australia
9.30,7093,SHU,SHU,,0.0,-11.133333,132.13333,Smith Point,Australia
10,7112,SIO,SIO,YSMI,7668769.0,-40.835835,145.08167,Smithton,Australia
10,7121,SIX,SIX,YSGT,7731494.0,-32.566666,151.16667,Singleton,Australia
8,7181,SLJ,SLJ,,5315824.0,33.29889,-111.91556,Stellar Air Park,Australia
9.30,7225,SNB,SNB,YSNB,7668770.0,-11.416667,130.66667,Snake Bay,Australia
10,7231,SNH,SNH,YSPE,7731500.0,-28.65,151.95,Stanthorpe,Australia
10,7258,SOI,SOI,,0.0,-20.75,148.58333,South Molle Island,Australia
8,7300,SQC,SQC,YSCR,7731503.0,-31.25,119.35,Southern Cross,Australia
10,7331,SRM,SRM,,2150460.0,-24.05,139.06667,Sandringham,Australia
10,7332,SRN,SRN,YSRN,7668772.0,-42.15,145.31667,Strahan,Australia
10,7336,SRR,SRR,KSRR,5491390.0,-27.5190395,153.4276083,Dunwich,Australia
8,7354,SSK,SSK,,7731513.0,-19.2,128.13333,Sturt Creek,Australia
10,7358,SSP,SSP,,8298898.0,-13.983333,143.55,Silver Plains,Australia
10,7372,STF,STF,,8299104.0,-9.5,143.56667,Stephen Island,Australia
10,7374,STH,STH,YSMR,7731515.0,-17.833332,142.58333,Strathmore,Australia
10,7428,SVM,SVM,,8299257.0,-10.366667,142.11667,St Pauls,Australia
8,7442,SWB,SWB,,7731521.0,-21.516666,119.36667,Shaw River,Australia
10,7443,SWC,SWC,YSWL,7668775.0,-37.066666,142.76666,Stawell,Australia
10,7448,SWH,SWH,YSWH,7668774.0,-35.38333,143.61667,Swan Hill,Australia
10,7466,SXE,SXE,YMES,6301312.0,-38.166668,147.0,Sale,Australia
10,7491,SYD,SYD,YSSY,2208268.0,-33.932922,151.1799,Sydney Kingsford Smith Airport,Australia
10,7507,SYU,SYU,YWBS,7731529.0,-10.208333,142.81667,Warraber Island,Australia
10,7547,TAN,TAN,,2207332.0,-27.083332,153.25,Tangalooma,Australia
9.30,7550,TAQ,TAQ,YTAR,7731532.0,-30.683332,134.55,Tarcoola,Australia
9.30,7568,TBK,TBK,YTBR,7731533.0,-15.65,130.48334,Timber Creek,Australia
8,7569,TBL,TBL,,8260971.0,-17.3,126.833336,Tableland,Australia
9.30,7583,TCA,TCA,YTNK,6301307.0,-19.638056,134.18083,Tennant Creek,Australia
10,7603,TCW,TCW,YTOC,7731536.0,-35.816666,145.6,Tocumwal,Australia
8,7614,TDN,TDN,,8298884.0,-14.75,126.51667,Theda Station,Australia
10,7617,TDR,TDR,YTDR,7731537.0,-24.983334,150.08333,Theodore,Australia
8,7629,TEF,TEF,YTEF,7730275.0,-21.713057,122.21222,Telfer,Australia
10,7635,TEM,TEM,YTEM,7668776.0,-34.416668,147.5,Temora,Australia
10,7668,TGN,TGN,,2146108.0,-38.2,146.56667,La Trobe Regional,Australia
10,7682,THG,THG,YTNG,7668780.0,-24.5,150.56667,Thangool,Australia
10,7718,TIS,TIS,,0.0,-10.5,142.05,Thursday Island,Australia
8,7763,TKY,TKY,,8298891.0,-17.066668,128.25,Turkey Creek,Australia
10,7810,TMW,TMW,YSTW,6301351.0,-31.0845,150.8485,Tamworth Regional Airport,Australia
8,7879,TPR,TPR,,7731560.0,-22.75,117.666664,Tom Price,Australia
10,7904,TRO,TRO,YTRE,7668781.0,-31.890272,152.50896,Taree,Australia
10,7936,TSV,TSV,YBTL,6301304.0,-19.256506,146.7708,Townsville International,Australia
10,7973,TUM,TUM,YTMU,7668779.0,-35.3,148.21666,Tumut,Australia
10,7994,TWB,TWB,YTWB,7730276.0,-27.542221,151.9139,Toowoomba,Australia
10,7999,TWN,TWN,,2146997.0,-26.4,153.05,Tewantin,Australia
10,8000,TWP,TWP,,7731566.0,-17.366667,143.75,Torwood,Australia
10,8011,TXR,TXR,,8298910.0,-25.85,141.91667,Tanbar,Australia
10,8014,TYB,TYB,YTIB,7668778.0,-29.456944,142.06223,Tibooburra,Australia
10,8018,TYG,TYG,YTHY,7731568.0,-26.098612,143.45555,Thylungra,Australia
9.30,8022,TYP,TYP,YTMY,7731569.0,-22.283333,137.96666,Tobermorey,Australia
10,8048,UBB,UBB,YMAA,7731572.0,-9.95,142.18333,Mabuiag Island,Australia
8,8055,UBU,UBU,YKAL,7731575.0,-14.3,126.65,Kalumburu,Australia
10,8062,UDA,UDA,YUDA,7731577.0,-18.183332,144.6,Undarra,Australia
10,8070,UEE,UEE,YQNS,7731578.0,-42.083332,145.55,Queenstown,Australia
10,8097,UIR,UIR,YQDI,7731579.0,-31.5,150.51666,Quirindi,Australia
10,8125,ULP,ULP,YQLP,7730273.0,-26.633333,144.3,Quilpie,Australia
9.30,8140,UMR,UMR,YPWR,6301339.0,-31.15,136.81667,Woomera,Australia
8,8188,USL,USL,YUSL,7731592.0,-25.966667,113.11667,Useless Loop,Australia
10,8196,UTB,UTB,YMTB,7668745.0,-22.5875,144.525,Muttaburra,Australia
9.30,8197,UTD,UTD,,8260879.0,-15.816667,134.16667,Nutwood Downs,Australia
9.30,8260,VCD,VCD,YVRD,7731597.0,-16.4,131.0,Victoria River Downs,Australia
10,8357,VNR,VNR,YVRS,7731606.0,-16.866667,141.91667,Vanrook,Australia
10,8435,WAN,WAN,,8298988.0,-25.366667,141.93333,Waverney,Australia
9.30,8441,WAU,WAU,,2144332.0,-31.466667,152.75,Wauchope,Australia
9.30,8442,WAV,WAV,YWAV,7731611.0,-17.483334,130.95,Kalkgurung,Australia
10,8446,WAZ,WAZ,YWCK,7731612.0,-28.15,151.95,Warwick,Australia
10,8469,WDI,WDI,YWND,7731615.0,-26.333332,151.81667,Wondai,Australia
10,8478,WEI,WEI,YBWP,6301305.0,-12.681317,141.9247,Weipa,Australia
10,8482,WEW,WEW,YWWA,6457347.0,-30.233334,149.43333,Wee Waa,Australia
10,8487,WGA,WGA,YSWG,6301352.0,-35.15992,147.46626,Forest Hill,Australia
10,8490,WGE,WGE,YWLG,7668784.0,-30.033333,148.13333,Walgett,Australia
10,8494,WGT,WGT,YWGT,7668783.0,-36.36667,146.33333,Wangaratta,Australia
10,8499,WHL,WHL,,2144143.0,-38.68889,146.45,Welshpool,Australia
10,8510,WIN,WIN,YWTN,7730281.0,-22.35,143.06667,Winton,Australia
10,8511,WIO,WIO,YWCA,7731618.0,-31.083332,143.55,Wilcannia,Australia
8,8513,WIT,WIT,YWIT,7731619.0,-22.266666,118.333336,Wittenoom,Australia
10,8520,WKB,WKB,YWKB,7730279.0,-36.15,142.43333,Warracknabeal,Australia
8,8528,WLA,WLA,YWAL,7731620.0,-19.783333,120.666664,Wallal,Australia
10,8530,WLC,WLC,YWCH,7731621.0,-30.983334,151.6,Walcha,Australia
9.30,8535,WLL,WLL,,8260923.0,-17.616667,137.91667,Wollogorang,Australia
9.30,8538,WLO,WLO,YWTL,7731622.0,-16.633333,129.31667,Waterloo,Australia
10,8543,WMB,WMB,YWBL,7668782.0,-38.295,142.44833,Warrnambool,Australia
8,8546,WME,WME,YMNE,7730265.0,-27.287222,120.549446,Mount Keith,Australia
8,8559,WND,WND,,8298771.0,-28.266666,121.833336,Windarra,Australia
10,8564,WNR,WNR,YWDH,7730277.0,-25.416668,142.66667,Windorah,Australia
10,8572,WOL,WOL,YWOL,6255013.0,-34.566666,150.78334,Wollongong,Australia
10,8573,WON,WON,,8298892.0,-18.583332,140.9,Wondoola,Australia
10,8582,WPK,WPK,YWMP,7731625.0,-16.633333,144.0,Wrotham Park,Australia
8,8596,WRW,WRW,,7731627.0,-20.866667,120.71667,Warrawagine,Australia
9.30,8629,WUD,WUD,YWUD,7731629.0,-33.016666,135.61945,Wudinna,Australia
8,8633,WUN,WUN,YWLU,7668785.0,-26.633333,120.21667,Wiluna,Australia
8,8646,WWI,WWI,YWWI,7731631.0,-21.633333,121.23333,Woodie Woodie,Australia
10,8652,WWY,WWY,YWWL,2143930.0,-33.933334,147.25,West Wyalong,Australia
9.30,8655,WYA,WYA,YWHA,7730278.0,-33.05241,137.52197,Whyalla,Australia
8,8658,WYN,WYN,YWYM,7731633.0,-15.507222,128.1375,Wyndham,Australia
10,8689,XCO,XCO,YOLA,7731634.0,-38.35,143.58333,Colac,Australia
9.30,8796,XHW,ASP,,0.0,-23.7002104,133.8806114,Alice Springs Railway,Australia
9.30,8797,XHX,ADL,,0.0,-34.9286212,138.5999594,Adelaide Keswick Railway,Australia
9.30,8827,XJG,DRW,,0.0,-12.4628198,130.8417694,Darwin Railway,Australia
10,8882,XMC,XMC,YMCO,7668739.0,-37.6,149.71666,Mallacoota,Australia
9.30,8887,XML,XML,YMIN,7731638.0,-35.0,137.5,Minlaton,Australia
10,8891,XMY,XMY,YYMI,7731639.0,-10.483333,142.45,Yam Island,Australia
10,8918,XOM,MEL,,0.0,-37.8131869,144.9629796,Melbourne Ferry Port,Australia
8,8936,XPO,PER,,0.0,-31.9522222,115.8588889,Perth Ferry Port,Australia
10,8955,XQN,BNE,,0.0,-27.4709331,153.0235024,Brisbane Ferry Port,Australia
10,8967,XRH,XRH,,0.0,-33.6,150.76889,Richmond AFB,Australia
10,8983,XTG,XTG,YTGM,7668777.0,-27.966667,143.76666,Thargomindah,Australia
10,8988,XTO,XTO,YTAM,7731640.0,-25.433332,149.8,Taroom,Australia
10,8990,XTR,XTR,YTAA,7731641.0,-27.283333,150.46666,Tara,Australia
10,9090,XYS,SYD,,0.0,-33.8689009,151.2070914,Sydney Ferry Port,Australia
8,9328,YLG,YLG,YYAL,7731645.0,-28.35,116.666664,Yalgoo,Australia
8,9380,YNN,YNN,,8260976.0,-22.766666,119.23333,Yandi,Australia
9.30,9516,YUE,YUE,YYND,7731647.0,-22.266666,131.81667,Yuendumu,Australia
10,9637,ZBL,ZBL,,2175819.0,-24.4,150.51666,Biloela,Australia
10,9640,ZBO,ZBO,YBWN,7731650.0,-20.016666,148.21666,Bowen,Australia
10,9722,ZGL,ZGL,YSGW,7731652.0,-25.683332,142.11667,South Galway,Australia
9.30,9763,ZII,ADL,,0.0,-34.9286212,138.5999594,Adelaide Ferry Port,Australia
8,9871,ZNE,ZNE,YNWM,7668751.0,-23.416517,119.80137,Newman,Australia
8,9989,ZVG,ZVG,,8224808.0,-17.866667,127.583336,Springvale,Australia
10,10345,BBL,,YLLE,8533832.0,-27.405633,141.809458,Ballera Airport,Australia
8,10353,BYP,,YBRY,8555592.0,-22.6739006042,119.1660003662,Barimunya Airport,Australia
8,10357,CJF,,YCWA,8555599.0,-22.9666996002,118.81300354,Coondewanna Airport,Australia
8,10377,GBW,,YGIA,,-22.5812,120.03553,Ginbata Airport,Australia
11,10387,GYZ,,YGRM,12110485.0,-28.01838,123.80329,Gruyere Mine Airport,Australia
8,10433,OCM,,YBGD,8533724.0,-22.54,117.275,Boolgeeda Airport,Australia
10.3,10436,OOD,,YOOD,7731357.0,-27.56,135.445,Oodnadatta Airport,Australia
7,10438,PHQ,,YTMO,8555618.0,-21.811667,139.923333,The Monument Airport,Australia
10,10491,TQP,,YTEE,8533833.0,-21.835,140.888056,Trepell Airport,Australia
-5,10499,WLE,,YMLS,8556009.0,-26.809167,150.165,Miles Airport,Australia
8,10500,WLP,,YANG,8556010.0,,,West Angelas Airport,Australia
10,10505,WTB,,YBWW,9881357.0,-27.558332,151.793335,Toowoomba Wellcamp Airport,Australia
8,10562,TTX,,YTST,8644119.0,-14.089722,126.380833,Mungalalu Truscott Airbase,Australia
8,10567,WRN,,YWDG,8555625.0,-30.031667,119.39,Windarling Airport,Australia
-4,425,AUA,AUA,TNCA,3577126.0,12.502222,-70.013885,Reina Beatrix,Aruba
4,2497,GBB,GBB,UBBQ,8181785.0,27.0,-7.566667,Gabala,Azerbaijan
4,2823,GYD,BAK,UBBB,6300924.0,40.462486,50.05039,Heydar Aliyev International (Bina International),Azerbaijan
4,4106,KVD,KVD,UBBG,6300925.0,40.733334,46.316666,Gyandzha,Azerbaijan
4,4389,LLK,LLK,UBBL,388727.0,38.74203,48.824093,Lankaran,Azerbaijan
4,5300,NAJ,NAJ,UBBN,7730185.0,39.190277,45.45889,Nakhichevan,Azerbaijan
4,9969,ZTU,ZTU,UBBY,8349590.0,41.56166,46.664787,Zaqatala,Azerbaijan
4,10019,ZXT,BAK,,0.0,40.485,49.983612,Heydar Aliyev,Azerbaijan
1,858,BNX,BNX,LQBK,6299693.0,44.933334,17.3,Banja Luka,Bosnia and Herzegovina
1,5776,OMO,OMO,LQMO,6299695.0,43.285557,17.846666,Mostar,Bosnia and Herzegovina
1,7133,SJJ,SJJ,LQSA,6299696.0,43.826687,18.336065,Sarajevo,Bosnia and Herzegovina
1,8029,TZL,TZL,LQTZ,6299697.0,44.40972,18.709167,Tuzla International,Bosnia and Herzegovina
-4,673,BGI,BGI,TBPB,3374036.0,13.080732,-59.487835,Grantley Adams International,Barbados
6,1110,BZL,BZL,VGBR,7668599.0,22.8,90.3,Barisal,Bangladesh
6,1278,CGP,CGP,VGEG,6301082.0,22.245201,91.81516,Patenga,Bangladesh
6,1372,CLA,CLA,VGCM,7730922.0,23.4375,91.19222,Comilla,Bangladesh
6,1631,CXB,CXB,VGCB,6301081.0,21.45,91.96667,Cox's Bazar,Bangladesh
6,1685,DAC,DAC,VGZR,6301871.0,23.848648,90.405876,Zia International,Bangladesh
6,3338,IRD,IRD,VGIS,6301083.0,24.133333,89.05278,Ishurdi,Bangladesh
6,3625,JSR,JSR,VGJR,6301084.0,23.17696,89.160645,Jessore,Bangladesh
6,6723,RJH,RJH,VGRJ,6301085.0,24.433332,88.61667,Rajshahi,Bangladesh
6,7278,SPD,SPD,VGSD,7668600.0,25.783333,88.9,Saidpur,Bangladesh
6,7756,TKR,TKR,VGSG,7731549.0,26.016666,88.4,Thakurgaon,Bangladesh
6,9744,ZHM,ZHM,VGSH,7731653.0,24.398611,91.92111,Shamshernagar,Bangladesh
6,10033,ZYL,ZYL,VGSY,6301086.0,24.957598,91.870476,Osmani International,Bangladesh
1,292,ANR,ANR,EBAW,6296483.0,51.18916,4.450672,Deurne/ Antwerp Airport,Belgium
1,937,BRU,BRU,EBBR,6296486.0,50.89717,4.483602,Brussels Airport,Belgium
1,1509,CRL,BRU,EBCI,6296489.0,50.456696,4.451703,Charleroi Brussels South,Belgium
1,3860,KJK,KJK,EBKT,7668190.0,50.817223,3.201667,Kortrijk,Belgium
1,4303,LGG,LGG,EBLG,6296496.0,50.643333,5.460149,Liege Airport,Belgium
1,5645,OBL,OBL,EBZR,7668192.0,51.266666,4.75,Zoersel,Belgium
1,5855,OST,OST,EBOS,6296498.0,51.199722,2.863611,Ostend/Bruges International Airport,Belgium
1,6495,QMO,QMO,,0.0,0.0,0.0,Mons Railway Station,Belgium
1,8788,XHN,LGG,,0.0,50.63333,5.56666,"Guillemins, Raiway Stn",Belgium
1,9626,ZAY,ANR,,0.0,51.21992,4.39625,De Keyserlei Bus Station,Belgium
1,9721,ZGJ,OST,,0.0,51.2166667,2.9,Brugge Railway Station,Belgium
1,9999,ZWE,ANR,,0.0,49.21516,7.399708,Antwerp Central Railway Station,Belgium
1,10039,ZYR,BRU,,0.0,-1.0,-1.0,Midi Railway Station,Belgium
1,10047,ZYZ,ANR,,0.0,51.21992,4.39625,Berchem Railway,Belgium
0,361,ARL,ARL,DFER,7730461.0,11.6,1.483333,Arly,Burkina Faso
0,853,BNR,BNR,DFOB,7730463.0,10.666667,-4.666667,Banfora,Burkina Faso
0,882,BOY,BOY,DFOO,6296412.0,11.163611,-4.324444,Borgo,Burkina Faso
0,1770,DGU,DGU,DFOD,6296410.0,12.466667,-3.483333,Dedougou,Burkina Faso
0,1792,DIP,DIP,DFED,7668176.0,12.033333,2.033333,Diapaga,Burkina Faso
0,1883,DOR,DOR,DFEE,6296407.0,14.033333,-0.033333,Dori,Burkina Faso
0,2372,FNG,FNG,DFEF,6296408.0,12.066667,0.35,Fada Ngourma,Burkina Faso
0,5880,OUA,OUA,DFFD,6296409.0,12.355019,-1.514283,Ouagadougou,Burkina Faso
0,5883,OUG,OUG,DFCC,6296404.0,13.516667,-2.333333,Ouahigouya,Burkina Faso
0,6375,PUP,PUP,DFCP,6296406.0,11.183333,-1.166667,Po,Burkina Faso
0,7630,TEG,TEG,DFET,7668179.0,11.9,-0.316667,Tenkodogo,Burkina Faso
0,7805,TMQ,TMQ,DFEM,7730460.0,14.783333,0.083333,Tambao,Burkina Faso
0,7977,TUQ,TUQ,DFOT,7730465.0,13.0,-3.0,Tougan,Burkina Faso
0,8668,XAR,XAR,DFOY,7730466.0,14.233333,-0.866667,Aribinda,Burkina Faso
0,8676,XBG,XBG,DFEB,7668175.0,12.983333,-0.133333,Bogande,Burkina Faso
0,8680,XBO,XBO,DFEA,7668174.0,12.65,-0.566667,Boulsa,Burkina Faso
0,8693,XDE,XDE,DFOU,7668181.0,10.966667,-3.25,Diebougou,Burkina Faso
0,8696,XDJ,XDJ,DFCJ,7730458.0,14.1,-1.633333,Djibo,Burkina Faso
0,8755,XGA,XGA,,0.0,10.333333,-3.183333,Gaoua,Burkina Faso
0,8760,XGG,XGG,DFEG,7730459.0,14.433333,-0.233333,Gorom-Gorom,Burkina Faso
0,8843,XKA,XKA,DFEL,7668177.0,12.483333,1.516667,Kantchari,Burkina Faso
0,8864,XKY,XKY,DFCA,7668172.0,13.083333,-1.083333,Kaya,Burkina Faso
0,8875,XLU,XLU,DFCL,7668173.0,11.1,-2.1,Leo,Burkina Faso
0,8904,XNU,XNU,DFON,7730464.0,12.733333,-3.866667,Nouna,Burkina Faso
0,8927,XPA,XPA,DFEP,7668178.0,11.25,0.7,Pama,Burkina Faso
0,8976,XSE,XSE,DFES,7730462.0,13.433333,0.533333,Sebba,Burkina Faso
0,9095,XZA,XZA,DFEZ,7668180.0,11.133333,-1.0,Zabre,Burkina Faso
2,869,BOJ,BOJ,LBBG,6299305.0,42.416668,27.283333,Bourgas,Bulgaria
2,2704,GOZ,GOZ,LBGO,6299306.0,43.11667,25.666668,Gorna Oriahovitsa,Bulgaria
2,2972,HKV,HKV,LB14,7731088.0,41.933334,25.55,Haskovo,Bulgaria
2,3441,JAM,JAM,LBIA,7731131.0,42.516666,26.483334,Jambol,Bulgaria
2,6022,PDV,PDV,LBPD,6299307.0,42.3,24.716667,Plovdiv,Bulgaria
2,7190,SLS,SLS,LBSS,7730627.0,44.05639,27.180555,Silistra,Bulgaria
2,7255,SOF,SOF,LBSF,6299309.0,42.688343,23.41443,Sofia,Bulgaria
2,7527,SZR,SZR,,726848.0,42.433334,25.616667,Stara Zagora,Bulgaria
2,7676,TGV,TGV,,8298660.0,42.416668,24.5,Targovishte,Bulgaria
2,8247,VAR,VAR,LBWN,6299310.0,43.23726,27.829096,Varna,Bulgaria
3,527,BAH,BAH,OBBI,290288.0,26.26918,50.62605,Bahrain International,Bahrain
3,10411,KHB,,OBKH,,26.034722,50.524444,Sakhir Air Base,Bahrain
2,751,BJM,BJM,HBBA,425378.0,-3.383333,29.366667,Melchior Ndadaye International Airport,Burundi
2,2602,GID,GID,,426272.0,-3.416667,29.916668,Gitega,Burundi
2,4009,KRE,KRE,HBBO,8299091.0,-3.333333,29.0,Kirundo,Burundi
1,1460,COO,COO,DBBB,6296398.0,6.353097,2.385271,Cotonou,Benin
1,1800,DJA,DJA,DBBD,8298719.0,9.7,1.666667,Djougou,Benin
1,3738,KDC,KDC,DBBK,6296400.0,11.116667,2.916667,Kandi,Benin
1,5295,NAE,NAE,,2392601.0,10.383333,1.366667,Natitingou,Benin
1,6146,PKO,PKO,DBBP,6296402.0,9.35,2.616667,Parakou,Benin
1,7421,SVF,SVF,DBBS,6296403.0,8.033333,2.483333,Save,Benin
-4,6939,SBH,SBH,TFFJ,0.0,17.9,-62.85,Gustaf III (St-Jean),Saint Barthélemy
-4,593,BDA,BDA,TXKF,3573197.0,32.35994,-64.70115,L. F. Wade International,Bermuda
-4,5609,NWU,BDA,,0.0,32.75,-65.0,Bermuda NAS,Bermuda
8,1048,BWN,BWN,WBSB,1820906.0,4.945197,114.93375,Bandar Seri Begwan International Airport,Brunei
-4,320,APB,APB,SLAP,6300764.0,-14.716667,-68.51667,Apolo,Bolivia
-4,377,ASC,ASC,SLAS,6300765.0,-15.916667,-63.15,Ascension,Bolivia
-4,753,BJO,BJO,SLBJ,7668467.0,-22.866667,-64.333336,Bermejo,Bolivia
-4,1024,BVK,BVK,,3915079.0,-13.55,-63.75,Huacaraje,Bolivia
-4,1025,BVL,BVL,,7730889.0,-13.583333,-63.583332,Baures,Bolivia
-4,1080,BYC,BYC,SLYA,6300794.0,-21.95,-63.65,Yacuiba,Bolivia
-4,1134,CAM,CAM,SLCA,6300766.0,-20.01111,-63.56111,Camiri,Bolivia
-4,1149,CBB,CBB,SLCB,3919968.0,-17.413954,-66.178894,J Wilsterman,Bolivia
-4,1234,CEP,CEP,SLCP,6300770.0,-16.233334,-62.083332,Concepcion,Bolivia
-4,1321,CIJ,CIJ,SLCO,6300769.0,-11.026389,-68.75278,Capitan Anibal Arab,Bolivia
-4,2822,GYA,GYA,SLGY,6300772.0,-10.83,-65.361664,Guayaramerin,Bolivia
-4,4467,LPB,LPB,SLLP,3913354.0,-16.50889,-68.1769,El Alto,Bolivia
-4,4799,MGD,MGD,SLMG,6300777.0,-13.325278,-64.124725,Magdalena,Bolivia
-4,4841,MHW,MHW,SLAG,7731273.0,-19.8325,-63.966667,Monteagudo,Bolivia
-4,5051,MQK,MQK,SLTI,7731290.0,-16.334444,-58.385555,San Matias,Bolivia
-4,5835,ORU,ORU,SLOR,6300778.0,-17.964167,-67.08083,Oruro,Bolivia
-4,6235,POI,POI,SLPO,6300779.0,-19.543056,-65.72361,Potosi,Bolivia
-4,6335,PSZ,PSZ,SLPS,6300780.0,-18.966667,-57.8,Puerto Suarez,Bolivia
-4,6377,PUR,PUR,SLPR,7731417.0,-11.1125,-67.52,Puerto Rico,Bolivia
-4,6611,RBO,RBO,SLRB,6300781.0,-18.344444,-59.75528,Robore,Bolivia
-4,6613,RBQ,RBQ,SLRQ,6300783.0,-14.45,-67.55,Rurrenabaque,Bolivia
-4,6670,REY,REY,SLRY,6300784.0,-14.316667,-67.26667,Reyes,Bolivia
-4,6702,RIB,RIB,SLRI,6300782.0,-11.006944,-66.093056,Gen Buech,Bolivia
-4,6943,SBL,SBL,SLSA,6300785.0,-13.716667,-65.45,Yacuma,Bolivia
-4,7125,SJB,SJB,SLJO,6300774.0,-13.083333,-64.8,San Joaquin,Bolivia
-4,7141,SJS,SJS,SLJE,6300773.0,-17.827223,-60.738335,San Jose,Bolivia
-4,7144,SJV,SJV,SLJV,6300775.0,-16.233334,-62.416668,San Javier,Bolivia
-4,7230,SNG,SNG,SLSI,6300787.0,-16.383057,-60.97639,San Ignacio De Velasco,Bolivia
-4,7236,SNM,SNM,SLSM,6300788.0,-14.966389,-65.63556,San Ignacio De M,Bolivia
-4,7322,SRB,SRB,SLSR,7731510.0,-10.6,-67.333336,Santa Rosa,Bolivia
-4,7324,SRD,SRD,SLRA,7731511.0,-13.283333,-64.71667,San Ramon,Bolivia
-4,7325,SRE,SRE,SLSU,6300789.0,-19.007778,-65.30167,Juana Azurduy de Padilla,Bolivia
-4,7329,SRJ,SRJ,SLSB,6300786.0,-14.816667,-66.833336,Capitan G Q Guardia,Bolivia
-4,7343,SRZ,SRZ,SLET,6300771.0,-17.804167,-63.1725,El Trompillo,Bolivia
-4,7609,TDD,TDD,SLTR,6300791.0,-14.822613,-64.91931,Trinidad,Bolivia
-4,7725,TJA,TJA,SLTJ,6300790.0,-21.554167,-64.745834,Tarija,Bolivia
-4,8228,UYU,UYU,,0.0,-20.4463,-66.8484,Uyuni,Bolivia
-4,8239,VAH,VAH,SLVG,7731594.0,-18.483334,-64.1,Vallegrande,Bolivia
-4,8339,VLM,VLM,SLVM,6300792.0,-21.25,-63.5,Villamontes,Bolivia
-4,8413,VVI,SRZ,SLVR,6300793.0,-17.648233,-63.140488,Viru Viru International,Bolivia
-4,873,BON,BON,TNCB,3513745.0,12.133403,-68.27687,Flamingo International,"Bonaire, Saint Eustatius and Saba"
-4,2215,EUX,EUX,TNCE,3513734.0,17.493055,-62.97778,F D Roosevelt,"Bonaire, Saint Eustatius and Saba"
-4,6911,SAB,SAB,TNCS,3513628.0,17.65,-63.216667,J. Yrausquin,"Bonaire, Saint Eustatius and Saba"
-3,6,AAG,AAG,SSYA,3471795.0,-24.103611,-49.79,Arapoti,Brazil
-3,8,AAI,AAI,SWRA,7668483.0,-12.916667,-46.933334,Arraias,Brazil
-3,22,AAX,AAX,SBAX,7668431.0,-19.568056,-46.92917,Araxa,Brazil
-4,119,AFL,AFL,SBAT,6316343.0,-9.872456,-56.104767,Alta Floresta,Brazil
-3,174,AIF,AIF,SNAX,8298688.0,-22.666668,-50.416668,Assis,Brazil
-4,184,AIR,AIR,SWRP,7730811.0,-10.25,-59.38333,Aripuana,Brazil
-3,200,AJU,AJU,SBAR,6300597.0,-10.987206,-37.072792,Santa Maria,Brazil
-3,243,ALQ,ALQ,SSLT,8260983.0,-29.799723,-55.763332,Federal,Brazil
-3,246,ALT,ALT,,3407980.0,-1.933333,-54.766666,Alenquer,Brazil
-3,260,AMJ,AMJ,SNAR,7730821.0,-16.183332,-40.683334,Almenara,Brazil
-3,332,APQ,APQ,SNAL,7730827.0,-9.75,-36.65,Arapiraca,Brazil
-3,334,APS,APS,SBAN,6300596.0,-16.333332,-48.966667,Anapolis,Brazil
-3,336,APU,APU,SSAP,7668471.0,-23.55,-51.483334,Apucarana,Brazil
-3,339,APX,APX,SSOG,7668475.0,-23.483334,-51.466667,Arapongas,Brazil
-3,340,APY,APY,,8260719.0,-9.133333,-45.933334,Alto Parnaiba,Brazil
-3,342,AQA,AQA,SBAQ,7668428.0,-21.816668,-48.13333,Araraquara,Brazil
-4,347,AQM,AQM,SWNI,7730829.0,-9.933333,-63.066666,Ariquemes,Brazil
-3,368,ARS,ARS,,8299188.0,-15.9,-52.233334,Aragarcas,Brazil
-3,370,ARU,ARU,SBAU,7668429.0,-21.143612,-50.42611,Aracatuba,Brazil
-3,412,ATM,ATM,SBHT,6300631.0,-3.2,-52.216667,Altamira,Brazil
-4,426,AUB,AUB,,0.0,-5.766667,-63.35,Itauba,Brazil
-3,448,AUX,AUX,SWGN,7668482.0,-7.2,-48.2,Araguaina,Brazil
-3,477,AXE,AXE,,8298996.0,-26.883333,-52.38333,Xanxere,Brazil
-4,512,AZL,AZL,,8260711.0,-13.47,-58.85,Fazenda Tucunare,Brazil
-3,537,BAT,BAT,SNBA,7730152.0,-20.55,-48.55,Airport Chafei Amsei,Brazil
-4,543,BAZ,BAZ,SWBC,0.0,-0.966944,-62.933613,Barbelos,Brazil
-4,584,BCR,BCR,SWNK,7730850.0,-8.75,-67.38333,Boca Do Acre,Brazil
-3,595,BDC,BDC,SNBC,7730853.0,-5.466667,-45.266666,Barra Do Corda,Brazil
-3,629,BEL,BEL,SBBE,6300600.0,-1.389865,-48.480003,Val De Cans,Brazil
-3,649,BFH,BFH,SBBI,6300603.0,-25.4025,-49.23389,Bacacheri,Brazil
-3,685,BGV,BGV,,8298946.0,-29.166668,-51.516666,Bento Goncalves,Brazil
-3,687,BGX,BGX,SBBG,6300601.0,-31.398611,-54.1125,Airport Cmdt. Gustavo Kraemer,Brazil
-3,754,BJP,BJP,SBBP,8298897.0,-22.95,-46.566666,Braganca Paulista,Brazil
-3,830,BMS,BMS,SNBU,7730874.0,-14.233333,-41.63333,Brumado,Brazil
-3,856,BNU,BNU,SSBL,7730875.0,-27.0,-49.0,Blumenau,Brazil
-4,889,BPG,BPG,SBBW,6300608.0,-15.85,-52.38333,Barra Do Garcas,Brazil
-3,896,BPS,BPS,SBPS,6300659.0,-16.441158,-39.081097,Porto Seguro,Brazil
-3,912,BQQ,BQQ,SNBX,6453436.0,-11.083333,-43.13333,Barra,Brazil
-3,918,BRA,BRA,SNBR,7730878.0,-12.073056,-45.00833,Barreiras,Brazil
-3,919,BRB,BRB,SBRR,7730879.0,-2.910626,-57.11111,Barreirinhas,Brazil
-3,944,BSB,BSB,SBBR,6300605.0,-15.869807,-47.921486,Presidente Juscelino Kubitschek,Brazil
-3,961,BSS,BSS,SNBS,7730881.0,-7.516667,-46.05,Balsas,Brazil
-4,1017,BVB,BVB,SBBV,6300607.0,2.833333,-60.666668,Boa Vista,Brazil
-4,1022,BVH,BVH,SBVH,6300684.0,-12.716667,-60.11667,Vilhena,Brazil
-3,1026,BVM,BVM,SNBL,7730890.0,-15.833333,-38.916668,Belmonte,Brazil
-3,1029,BVS,BVS,SNVS,7730891.0,-1.666667,-50.466667,Breves,Brazil
-4,1091,BYO,BYO,SJDB,8260787.0,-21.229445,-56.456112,Bonito Airport,Brazil
-3,1102,BZC,BZC,SBBZ,7730153.0,-22.769444,-41.964443,Buzios,Brazil
-3,1124,CAC,CAC,SBCA,7668432.0,-24.95,-53.466667,Cascavel,Brazil
-4,1127,CAF,CAF,SWCA,7730901.0,-4.9,-66.916664,Carauari,Brazil
-3,1142,CAU,CAU,SNRU,7730902.0,-8.25,-35.916668,Caruaru,Brazil
-3,1144,CAW,CAW,SBCP,6300614.0,-21.75,-41.3,Bartolomeu Lisandro,Brazil
-3,1170,CBW,CBW,,8298747.0,-24.001944,-52.356388,Campo Mourao,Brazil
-3,1181,CCI,CCI,SSCK,7668472.0,-27.181389,-52.050556,Concordia,Brazil
-3,1185,CCM,CCM,SBCM,7668435.0,-28.7,-49.36667,Criciuma,Brazil
-3,1189,CCQ,CCQ,,8298778.0,-12.6,-38.966667,Cachoeira,Brazil
-4,1195,CCX,CCX,,8298818.0,-16.066668,-57.7,Caceres,Brazil
-3,1205,CDI,CDI,,0.0,-20.836111,-41.186943,Cachoeiro Itapemirim,Brazil
-3,1206,CDJ,CDJ,SBAA,6300594.0,-8.233333,-49.283333,Conceicao Do Araguaia,Brazil
-3,1246,CFB,CFB,SBCB,7668433.0,-22.925,-42.07861,Cabo Frio,Brazil
-3,1247,CFC,CFC,SBCD,7910371.0,-26.790556,-50.941387,Cacador,Brazil
-4,1256,CFO,CFO,SJHG,7730912.0,-10.633333,-51.566666,Confreza,Brazil
-4,1265,CGB,CGB,SBCY,6300617.0,-15.651725,-56.120266,International Airport Marechal Rondon,Brazil
-3,1271,CGH,SAO,SBSP,6301857.0,-23.626902,-46.659557,Congonhas International Airport,Brazil
-4,1280,CGR,CGR,SBCG,6300610.0,-20.456991,-54.668873,International Airport Campo Grande,Brazil
-4,1337,CIZ,CIZ,SWKO,7730920.0,-4.083333,-63.13333,Coari,Brazil
-3,1362,CKO,CKO,SSCP,7730921.0,-23.116667,-50.666668,Cornelio Procopio,Brazil
-3,1364,CKS,CKS,SBCJ,6300612.0,-6.114749,-50.001945,Carajas,Brazil
-3,1382,CLN,CLN,SBCI,6300611.0,-7.333333,-47.45,Carolina,Brazil
-3,1390,CLV,CLV,SBCN,7730779.0,-17.75,-48.63333,Caldas Novas,Brazil
-3,1397,CMC,CMC,SNWC,7730925.0,-2.916667,-40.833332,Camocim,Brazil
-4,1401,CMG,CMG,SBCR,6300615.0,-19.01111,-57.672222,International Airport Corumba,Brazil
-3,1410,CMP,CMP,SNKE,7730927.0,-9.8,-36.35,Campo Alegre,Brazil
-3,1414,CMT,CMT,,8260789.0,-2.2,-49.5,Cameta,Brazil
-3,1426,CNF,BHZ,SBCF,6301851.0,-19.632418,-43.963215,Tancredo Neves International Airport,Brazil
-3,1441,CNV,CNV,SNED,7730930.0,-15.666667,-38.983334,Canavieiras,Brazil
-3,1485,CPQ,CPQ,SDAM,7730937.0,-22.856462,-47.111595,Campo dos Amarais–Prefeito Francisco Amaral State Airport,Brazil
-3,1489,CPU,CPU,SNCU,7730938.0,-1.8,-44.86667,Cururupu,Brazil
-3,1490,CPV,CPV,SBKG,6300636.0,-7.266667,-35.9,Joao Suassuna,Brazil
-4,1492,CQA,CQA,SWEK,7730939.0,-13.574167,-52.27028,Canarana Airport,Brazil
-4,1496,CQS,CQS,SWCQ,7730941.0,-12.416667,-64.25,Costa Marques,Brazil
-3,1513,CRQ,CRQ,SBCV,6300616.0,-17.75,-39.25,Caravelas,Brazil
-4,1540,CSS,CSS,,8260793.0,-18.983334,-51.983334,Cassilandia,Brazil
-3,1542,CSU,CSU,SSSC,7730949.0,-29.683332,-52.416668,Santa Cruz Do Sul,Brazil
-4,1544,CSW,CSW,,8260798.0,-13.019444,-61.168056,Colorado do Oeste,Brazil
-3,1563,CTP,CTP,SNCP,7730950.0,-1.25,-46.016666,Carutapera,Brazil
-3,1564,CTQ,CTQ,SSVP,7730951.0,-18.85,-50.1,Do Palmar,Brazil
-3,1617,CWB,CWB,SBCT,6301852.0,-25.5322,-49.176544,Afonso Pena International Airport,Brazil
-3,1636,CXJ,CXJ,SBCX,7668436.0,-29.166668,-51.183334,Campo Dos Bugres,Brazil
-3,1664,CZB,CZB,,8298857.0,-28.641666,-53.558334,Carlos Ruhl,Brazil
-5,1676,CZS,CZS,SBCZ,6300618.0,-7.583333,-72.78333,International Airport Cruzeiro Do Sul,Brazil
-3,1793,DIQ,DIQ,SNDV,7730973.0,-20.181389,-44.869446,Divinopolis,Brazil
-4,1844,DMT,DMT,SWDM,7730979.0,-14.5,-56.5,Diamantino,Brazil
-3,1858,DNO,DNO,SWDN,7730982.0,-11.616667,-46.85,Dianopolis,Brazil
-4,1884,DOU,DOU,SSDO,7730986.0,-22.202778,-54.925556,Dourados,Brazil
-3,1931,DTI,DTI,SNDT,8260803.0,-18.230804,-43.647846,Diamantina,Brazil
-3,2168,ERM,ERM,SSER,7668473.0,-27.641666,-52.275555,Comandante Kraemer,Brazil
-5,2169,ERN,ERN,SWEI,7731012.0,-6.583333,-69.88333,Eirunepe,Brazil
-3,2186,ESI,ESI,,3463939.0,-15.0,-44.0,Espinosa,Brazil
-4,2265,FBA,FBA,SWOB,8260811.0,-2.531212,-66.08454,Fonte Boa,Brazil
-3,2267,FBE,FBE,SSFB,7731020.0,-26.083332,-53.066666,Francisco Beltrao,Brazil
-3,2293,FEC,FEC,,8298693.0,-12.2025,-38.906113,Feira De Santana,Brazil
-2,2297,FEN,FEN,SBFN,6300625.0,-3.85,-32.416668,Fernando De Noronha,Brazil
-3,2336,FLB,FLB,SNQG,7731027.0,-6.8,-43.033333,Cangapara,Brazil
-3,2346,FLN,FLN,SBFL,6300624.0,-27.664446,-48.5452,Hercilio Luz,Brazil
-3,2392,FOR,FOR,SBFZ,3399415.0,-3.779073,-38.540836,Pinto Martins,Brazil
-3,2403,FRC,FRC,SIMK,7731033.0,-20.551945,-47.4375,Franca,Brazil
-3,2527,GCV,GCV,,8299185.0,-29.941668,-50.994167,Gravatai,Brazil
-3,2542,GDP,GDP,SNGD,7731046.0,-6.781944,-43.58167,Guadalupe,Brazil
-3,2558,GEL,GEL,SBNM,7668440.0,-28.28111,-54.168056,Sepe Tiaraju,Brazil
-3,2604,GIG,RIO,SBGL,6301853.0,-22.814653,-43.24651,Galeao Antonio Carlos Jobim,Brazil
-4,2616,GJM,GJM,SBGM,7730154.0,-10.783333,-65.36667,Guajara-Mirim,Brazil
-3,2662,GMS,GMS,SNGM,7731064.0,-2.15,-44.7,Guimaraes,Brazil
-3,2673,GNM,GNM,SNGI,7731065.0,-14.3,-42.783333,Guanambi,Brazil
-3,2706,GPB,GPB,SSUW,7668437.0,-25.333332,-51.5,Tancredo Thomaz Faria,Brazil
-3,2731,GRP,GRP,SWGI,7731067.0,-11.666667,-49.216667,Gurupi,Brazil
-3,2736,GRU,SAO,SBGR,6300629.0,-23.425669,-46.481926,Aeroporto Internacional Guarulhos,Brazil
-3,2783,GUJ,GUJ,SBGW,6300630.0,-22.816668,-45.216667,Guaratingueta,Brazil
-3,2798,GUZ,QDL,SNGA,8260693.0,-20.65,-40.49167,Guarapari,Brazil
-3,2805,GVR,GVR,SNGV,7730780.0,-18.850279,-41.933334,Governador Valadares,Brazil
-3,2828,GYN,GYN,SBGO,6300628.0,-16.632631,-49.226624,Santa Genoveva,Brazil
-3,3069,HRZ,HRZ,,3461659.0,-27.638332,-54.340557,Horizontina,Brazil
-4,3119,HUW,HUW,SWHT,8260830.0,53.583447,-0.348669,Humaita,Brazil
-3,3198,IDO,IDO,SWIY,7731104.0,-11.566667,-50.666668,Rio,Brazil
-3,3227,IGU,IGU,SBFI,6300623.0,-25.597937,-54.488823,Cataratas,Brazil
-3,3239,IJU,IJU,SSIJ,7731111.0,-28.416668,-53.916668,J. Batista Bos Filho Airport,Brazil
-4,3251,ILB,ILB,,8298817.0,-20.333332,-51.333332,Ilha Solteira,Brazil
-3,3280,IMP,IMP,SBIZ,6300634.0,-5.531944,-47.480556,Imperatriz,Brazil
-3,3315,IOS,IOS,SBIL,6300633.0,-14.813889,-39.03,Eduardo Gomes,Brazil
-4,3321,IPG,IPG,SWII,7731118.0,-3.216667,-65.95,Ipiranga,Brazil
-3,3325,IPN,IPN,SBIP,7668438.0,-19.5,-42.533333,Usiminas,Brazil
-3,3328,IPU,IPU,SNIU,7731119.0,-14.133333,-39.733334,Ipiau,Brazil
-3,3339,IRE,IRE,SNIC,7731120.0,-11.3,-41.86667,Irece,Brazil
-4,3352,IRZ,IRZ,SWTP,8260731.0,-0.380296,-64.996025,Tapuruquara,Brazil
-4,3374,ITA,ITA,SBIC,7730155.0,-3.133333,-58.416668,Itacoatiara,Brazil
-3,3375,ITB,ITB,SBIH,6300632.0,-4.283333,-55.983334,Itaituba,Brazil
-3,3376,ITE,ITE,,8261005.0,-13.7,-39.2,Itubera,Brazil
-3,3378,ITI,ITI,SNYH,7731122.0,-18.0,-41.5,Itambacuri,Brazil
-3,3382,ITP,ITP,,8298802.0,-21.21889,-41.875,Itaperuna,Brazil
-3,3383,ITQ,ITQ,SSIQ,7731124.0,-29.133333,-56.55,Itaqui,Brazil
-3,3384,ITR,ITR,SBIT,8256215.0,-18.445,-49.21417,Hidroeletrica,Brazil
-3,3427,IZA,JDF,SDZY,8288520.0,-21.513056,-43.173058,Reg. da Zona da Mata,Brazil
-3,3460,JCB,JCB,SSJA,7668474.0,-27.166668,-51.516666,Joacaba,Brazil
-3,3468,JCM,JCM,SNJB,7731135.0,-11.183333,-40.516666,Jacobina,Brazil
-3,3471,JCR,JCR,SBEK,6300621.0,-5.983333,-57.533333,Jacareacanga,Brazil
-3,3478,JDF,JDF,SBJF,6301854.0,-21.75,-43.333332,Francisco De Assis,Brazil
-3,3483,JDO,JDO,SNQY,0.0,-7.2,-39.316666,Regional Do Cariri,Brazil
-3,3485,JDR,JDR,SNJR,7873770.0,-21.087957,-44.2301,Sao Joao Del Rei,Brazil
-3,3496,JEQ,JEQ,SNJK,7731136.0,-13.85,-40.083332,Jequie,Brazil
-4,3524,JIA,JIA,SWJN,7731138.0,-11.5,-58.88333,Juina,Brazil
-3,3555,JLS,JLS,SDJL,7731143.0,-20.166668,-50.55,Jales,Brazil
-3,3569,JNA,JNA,SNJN,7731145.0,-15.474167,-44.385834,Januaria,Brazil
-3,3585,JOI,JOI,SBJV,6453440.0,-26.233334,-48.783333,Lauro Carneiro De Loyola,Brazil
-3,3594,JPA,JPA,SBJP,6300635.0,-7.145357,-34.94816,Castro Pinto,Brazil
-4,3597,JPR,JPR,SWJI,7731146.0,-10.870556,-61.84667,Ji-Parana,Brazil
-4,3612,JRN,JRN,SWJU,7731147.0,-10.305556,-58.488888,Juruena,Brazil
-3,3629,JTC,JTC,SJTC,7910484.0,-22.165958,-49.07229,Arealva,Brazil
-3,3630,JTI,JTI,,0.0,-17.829445,-51.774723,Jatai,Brazil
-4,3634,JUA,JUA,SIZX,6317397.0,-11.333333,-57.466667,Juara,Brazil
-3,4175,LAJ,LAJ,SBLJ,7730156.0,-27.8,-50.316666,Lages,Brazil
-3,4191,LAZ,LAZ,SBLP,6300639.0,-13.256944,-43.4125,Bom Jesus Da Lapa,Brazil
-4,4209,LBR,LBR,SWLB,7731210.0,-7.25,-64.85,Labrea,Brazil
-4,4219,LCB,LCB,,8260887.0,-13.013333,-59.99861,Pontes e Lacerda,Brazil
-3,4242,LDB,LDB,SBLO,6300638.0,-23.328457,-51.137714,Londrina,Brazil
-3,4263,LEC,LEC,SBLE,7730781.0,-12.48,-41.281113,Chapada Diamantina,Brazil
-3,4276,LEP,LEP,SNDN,7731218.0,-21.466667,-42.666668,Leopoldina,Brazil
-3,4347,LIP,LIP,SBLN,7730157.0,-21.666668,-49.75,Lins,Brazil
-3,4450,LOI,LOI,,8260688.0,-27.159721,-49.542778,Helmuth Baungartem,Brazil
-3,4582,LVB,LVB,SNLB,7731247.0,-30.833332,-55.61667,Dos Galpoes,Brazil
-4,4590,LVR,LVR,SWFE,8260746.0,-13.03684,-55.94835,Mun. Do Bom Futuro,Brazil
-3,4642,MAB,MAB,SBMA,6300640.0,-5.366667,-49.166668,Maraba,Brazil
-4,4655,MAO,MAO,SBEG,6300620.0,-3.031327,-60.046093,Eduardo Gomes International,Brazil
-4,4677,MBK,MBK,SWXM,7731257.0,-10.0575,-54.932777,Matupa,Brazil
-4,4692,MBZ,MBZ,SWMW,7731260.0,-3.4,-57.7,Maues,Brazil
-3,4708,MCP,MCP,SBMQ,6300645.0,0.049895,-51.068382,Internacional,Brazil
-3,4718,MCZ,MCZ,SBMO,6300644.0,-9.512521,-35.800446,Palmares,Brazil
-3,4745,MEA,MEA,SBME,6300641.0,-22.35,-41.8,Macae,Brazil
-3,4765,MEU,MEU,SBMD,7730159.0,-0.883333,-52.583332,Monte Dourado,Brazil
-3,4801,MGF,MGF,SBMG,6300642.0,-23.383612,-51.933334,Regional De Maringa SBMG,Brazil
-3,4853,MII,MII,SBML,7730160.0,-22.2,-49.933334,Dr Gastao Vidigal,Brazil
-4,4991,MNX,MNX,SBMY,6300648.0,-5.816667,-61.283333,Manicore,Brazil
-3,4996,MOC,MOC,SBMK,6300643.0,-16.707779,-43.817223,Montes Claros,Brazil
-3,5049,MQH,MQH,SBMC,7730158.0,-13.533333,-48.233334,Municipal,Brazil
-3,5121,MTE,MTE,SNMA,7731297.0,-1.983333,-54.066666,Monte Alegre,Brazil
-4,5123,MTG,MTG,,8260862.0,-14.0,-55.0,Mato Grosso,Brazil
-3,5172,MVF,MVF,SBMW,6300646.0,-5.166667,-37.25,Dixsept Rosado,Brazil
-3,5183,MVS,MVS,SNMU,7731306.0,-18.083332,-39.566666,Aeroporto Max Feffer,Brazil
-3,5310,NAT,NAT,SBNT,3406959.0,-5.916787,-35.250244,Augusto Severo,Brazil
-3,5328,NBV,NBV,,0.0,-17.383333,-45.86667,Cana Brava,Brazil
-3,5484,NNU,NNU,SNNU,7731340.0,-17.816668,-40.333332,Nanuque,Brazil
-4,5495,NOK,NOK,,6317775.0,-14.690278,-52.34861,Nova Xavantina,Brazil
-3,5514,NPR,NPR,SJNP,8260751.0,-7.126,-55.4,Novo Progresso Municipal,Brazil
-3,5519,NQL,NQL,SWNQ,7731342.0,-14.0,-48.983334,Niquelandia,Brazil
-3,5563,NTM,NTM,,8260864.0,-9.183333,-48.5,Miracema Do Norte,Brazil
-4,5598,NVP,NVP,SWNA,7731353.0,-5.133333,-60.36667,Novo Aripuana,Brazil
-3,5601,NVT,NVT,SBNF,7668439.0,-26.866667,-48.63333,Navegantes,Brazil
-4,5632,OAL,OAL,SSKW,7909880.0,-11.433889,-61.4825,Cacoal,Brazil
-3,5644,OBI,OBI,SBTS,7730162.0,-1.916667,-55.516666,Obidos,Brazil
-3,5714,OIA,OIA,SDOW,7910025.0,-6.761303,-51.049,Ourilandia,Brazil
-4,5745,OLC,OLC,,0.0,-3.470869,-68.95853,Sen. Eunice Micheles,Brazil
-4,5812,OPS,OPS,SWSI,7731372.0,-11.878573,-55.58156,Sinop,Brazil
-3,5838,ORX,ORX,SNOX,7731375.0,-1.75,-55.86667,Oriximina,Brazil
-4,5876,OTT,OTT,,8298840.0,-9.902215,-58.581287,Andre Maggi,Brazil
-3,5891,OUS,OUS,SDOU,7731377.0,-22.966667,-49.916668,Ourinhos,Brazil
-3,5918,OYK,OYK,SBOI,6300650.0,3.883333,-51.783333,Oiapoque,Brazil
-3,5953,PAV,PAV,SBUF,6300681.0,-9.397778,-38.22222,Paulo Afonso,Brazil
-4,5959,PBB,PBB,,8298812.0,-19.666668,-51.183334,Paranaiba,Brazil
-4,5974,PBQ,PBQ,SWPM,7731384.0,-11.7,-61.2,Pimenta Bueno,Brazil
-4,5979,PBV,PBV,,8260888.0,-11.516667,-57.333332,Porto Dos Gauchos,Brazil
-4,5981,PBX,PBX,,8299066.0,-10.860833,-51.684444,Porto Alegre Do Norte,Brazil
-3,6001,PCS,PCS,SNPC,7731389.0,-7.083333,-41.466667,Picos,Brazil
-3,6010,PDF,PDF,SNRD,7731392.0,-17.35,-39.216667,Prado,Brazil
-3,6018,PDR,PDR,,8298805.0,-5.311111,-44.480278,Presidente Dutra,Brazil
-3,6043,PET,PET,SBPK,6300655.0,-31.718056,-52.324444,Federal,Brazil
-3,6051,PFB,PFB,SBPF,6300653.0,-28.25,-52.333332,Passo Fundo,Brazil
-3,6065,PGG,PGG,,8260890.0,-6.954167,-55.46111,Progresso,Brazil
-3,6079,PGZ,PGZ,SSZW,7668479.0,-25.083332,-50.15,Sant'Ana,Brazil
-3,6081,PHB,PHB,SBPB,6300651.0,-2.891667,-41.738335,Santos Dumont,Brazil
-3,6088,PHI,PHI,SNYE,7731398.0,-2.516667,-45.083332,Pinheiro,Brazil
-4,6108,PIG,PIG,,8260886.0,-24.75,-51.716667,Pitinga,Brazil
-4,6114,PIN,PIN,SWPI,7731399.0,-2.669208,-56.770027,Parintins,Brazil
-3,6122,PIV,PIV,,8260885.0,-17.338612,-44.93222,Pirapora,Brazil
-4,6164,PLL,PLL,,6301856.0,-3.145556,-59.984444,Ponta Pelada,Brazil
-3,6173,PLU,BHZ,SBBH,6300602.0,-19.75,-43.75,Pampulha,Brazil
-4,6185,PMG,PMG,SBPP,6300658.0,-22.55,-55.7,Ponta Porã International Airport,Brazil
-3,6200,PMW,PMW,SWPJ,7668441.0,-10.241667,-48.35278,Palmas,Brazil
-3,6205,PNB,PNB,SBPN,6300657.0,-10.7,-48.416668,Porto Nacional,Brazil
-3,6210,PNG,PNG,SSPG,6300654.0,-25.516666,-48.5,Paranagua,Brazil
-3,6226,PNZ,PNZ,SBPL,6300656.0,-9.393333,-40.490555,Internacional,Brazil
-3,6227,POA,POA,SBPA,3473902.0,-29.98961,-51.17709,Salgado Filho,Brazil
-3,6236,POJ,QPT,SNPD,7731405.0,-18.671667,-46.490833,Patos De Minas,Brazil
-3,6240,POO,POO,SBPC,6300652.0,-21.841389,-46.5675,Pocos De Caldas,Brazil
-3,6253,PPB,PPB,SBDN,6300619.0,-22.1,-51.45,Adhemar De Barros,Brazil
-3,6275,PPY,PPY,SNZA,7731409.0,-22.288334,-45.918888,Pouso Alegre,Brazil
-3,6332,PSW,PSW,SNOS,7731414.0,-20.716667,-46.61667,Passos,Brazil
-3,6349,PTO,PTO,SSPB,7731415.0,-26.216667,-52.666668,Pato Branco,Brazil
-3,6351,PTQ,PTQ,SNMZ,7731416.0,-1.738889,-52.244446,Porto de Moz,Brazil
-4,6393,PVH,PVH,SBPV,6300660.0,-8.714311,-63.898308,Governador Jorge Teixeira,Brazil
-3,6394,PVI,PVI,SSPI,7731419.0,-23.066668,-52.466667,Edu Chaves,Brazil
-3,6525,QSC,QSC,,0.0,0.0,0.0,Sao Carlos,Brazil
-3,6587,RAO,RAO,SBRP,6300665.0,-21.135834,-47.773335,Leite Lopes,Brazil
-4,6598,RBB,RBB,SWBR,7731454.0,-4.4,-59.583332,Borba,Brazil
-5,6614,RBR,RBR,SBRB,6300662.0,-9.966667,-67.8,Pres. Medici,Brazil
-3,6640,RDC,RDC,SNDC,7731458.0,-8.030278,-49.98,Redencao,Brazil
-3,6654,REC,REC,SBRF,6300663.0,-8.131507,-34.91792,Guararapes International,Brazil
-3,6671,REZ,REZ,,0.0,-22.478056,-44.48111,Resende,Brazil
-3,6701,RIA,RIA,SBSM,6300671.0,-29.710556,-53.6875,Base Aerea De Santa Maria,Brazil
-3,6707,RIG,RIG,SBRG,7910172.0,-32.083332,-52.166668,Rio Grande,Brazil
-4,6799,ROO,ROO,SWRD,7731467.0,-16.433332,-54.716667,Rondonopolis,Brazil
-3,6824,RRN,RRN,,8298928.0,-11.0,-59.0,Serra Norte,Brazil
-3,6834,RSG,RSG,,8299013.0,-5.95,-49.65,Serra Pelada,Brazil
-3,6880,RVD,RVD,SWLC,7731477.0,-17.716667,-50.933334,Rio Verde,Brazil
-3,6895,RWS,RWS,,8299238.0,-22.800556,-47.192223,Sumare,Brazil
-3,6941,SBJ,SBJ,SNMX,7731482.0,-18.583332,-39.733334,Sao Mateus,Brazil
-3,7000,SDU,RIO,SBRJ,6300664.0,-22.911541,-43.167095,Santos Dumont,Brazil
-3,7011,SEI,SEI,,8260957.0,-10.45,-40.183334,Senhor Do Bonfim,Brazil
-3,7034,SFK,SFK,,3387204.0,-0.7,-48.52222,Soure,Brazil
-3,7044,SFV,SFV,,8299017.0,-19.833332,-50.166668,Santa Fe Do Sul,Brazil
-3,7134,SJK,SJK,SBSJ,6300669.0,-23.183332,-46.11667,Sao Jose Dos Campos,Brazil
-4,7135,SJL,SJL,SBUA,6300680.0,-0.148333,-66.98556,Da Cachoeira,Brazil
-3,7138,SJP,SJP,SBSR,7668442.0,-20.816668,-49.416668,Sao Jose Do Rio Preto,Brazil
-3,7197,SLZ,SLZ,SBSL,6300670.0,-2.583316,-44.236683,Marechal Cunha Machado,Brazil
-3,7249,SNZ,SNZ,,8298767.0,-6.216667,-36.016666,Santa Cruz,Brazil
-3,7253,SOD,SOD,SDCO,7534511.0,-23.483334,-47.45,Sorocaba,Brazil
-3,7308,SQM,SQM,SWUA,7731505.0,-13.316667,-50.216667,São Miguel de Aragao,Brazil
-3,7318,SQX,SQX,SSOE,7731508.0,-26.780556,-53.502777,Sao Miguel do Oeste,Brazil
-3,7319,SQY,SQY,SSRU,7731509.0,-31.382778,-52.032223,Sao Lourenco Do Sul,Brazil
-3,7321,SRA,SRA,SSZR,7668478.0,-27.866667,-54.483334,Santa Rosa,Brazil
-3,7344,SSA,SSA,SBSV,6300674.0,-12.913988,-38.335197,Luis Eduardo Magalhaes,Brazil
-3,7357,SSO,SSO,SNLO,7731514.0,-22.116667,-45.05,Sao Lourenco,Brazil
-3,7366,SSZ,SSZ,SBST,6300673.0,-23.933332,-46.36667,Santos,Brazil
-3,7379,STM,STM,SBSN,6300672.0,-2.424886,-54.78639,Eduardo Gomes,Brazil
-4,7391,STZ,STZ,SWST,7731516.0,-10.300278,-50.45,Confresa,Brazil
-4,7476,SXO,SXO,SWFX,7731524.0,-11.6,-50.65,Sao Felix Do Araguaia,Brazil
-3,7485,SXX,SXX,SNFX,7731527.0,-6.633333,-51.983334,Sao Felix Do Xingu,Brazil
-4,7577,TBT,TBT,SBTT,6300678.0,-4.233333,-69.933334,Internacional,Brazil
-3,7626,TEC,TEC,SBTL,7668444.0,-24.315832,-50.65167,Telemaco Borba,Brazil
-4,7649,TFF,TFF,SBTF,6300676.0,-3.366667,-64.7,Tefe,Brazil
-3,7651,TFL,TFL,SNTO,7731541.0,-17.85,-41.5,Teofilo Otoni,Brazil
-4,7671,TGQ,TGQ,,8260778.0,-14.656389,-57.448612,Tangara da Serra,Brazil
-3,7681,THE,THE,SBTE,3386497.0,-5.06335,-42.821087,Senador Petrônio Portella,Brazil
-3,7789,TLZ,TLZ,SWKT,7731552.0,-18.166668,-47.95,Catalao,Brazil
-3,7808,TMT,TMT,SBTB,7668443.0,-1.916667,-55.583332,Trombetas,Brazil
-3,7861,TOW,TOW,SBTD,7730783.0,-24.69861,-53.69611,Toledo,Brazil
-5,7906,TRQ,TRQ,SBTK,6300677.0,-8.1,-70.75,Tarauaca,Brazil
-3,7931,TSQ,TSQ,,8298765.0,-29.3325,-49.746113,Torres,Brazil
-3,7978,TUR,TUR,SBTU,6300679.0,-3.7,-49.733334,Tucurui,Brazil
-3,8005,TXF,TXF,,6318755.0,-7.133333,-37.183334,Teixeira de Freitas,Brazil
-3,8047,UBA,UBA,SBUR,6300683.0,-19.776388,-47.958332,Uberaba,Brazil
-3,8054,UBT,UBT,SDUB,7731574.0,-23.433332,-45.083332,Ubatuba,Brazil
-3,8065,UDI,UDI,SBUL,6300682.0,-18.9,-48.233334,Eduardo Gomes,Brazil
-3,8142,UMU,UMU,SSUM,7731587.0,-23.798332,-53.31333,Ernesto Geisel,Brazil
-3,8144,UNA,UNA,SBTC,7730782.0,-15.353333,-38.997223,Una,Brazil
-3,8173,URG,URG,SBUG,6301858.0,-29.781668,-57.038334,Ruben Berta,Brazil
-3,8238,VAG,VAG,SBVG,7730163.0,-21.55,-45.433334,Maj. Brig. Trompowsky,Brazil
-3,8242,VAL,VAL,SNVB,7731595.0,-13.333333,-39.083332,Valenca,Brazil
-3,8265,VCP,SAO,SBKP,6300637.0,-23.009892,-47.141674,Viracopos (Campinas International),Brazil
-3,8272,VDC,VDC,SBQV,6300661.0,-14.883333,-40.86667,Vitoria Da Conquista,Brazil
-3,8304,VIA,VIA,SSVI,7668477.0,-27.008333,-51.136112,Vienna,Brazil
-3,8321,VIX,VIX,SBVT,6300685.0,-20.25681,-40.289566,Eurico Sales,Brazil
-4,8342,VLP,VLP,SWVC,7731604.0,-10.015556,-51.122223,Vila Rica,Brazil
-3,8369,VOT,VOT,SDVG,7731607.0,-20.433332,-49.88333,Votuporanga,Brazil
-3,8666,XAP,XAP,SBCH,7668434.0,-27.088612,-52.629723,Aeroporto Municipalcipal Chapeco,Brazil
-3,8804,XIG,XIG,,6318968.0,-6.966667,-48.8,Xinguara,Brazil
-3,9708,ZFU,ZFU,,0.0,-23.3964516,-46.3214444,Aruja,Brazil
-5,9847,ZMD,ZMD,,8260768.0,-9.083333,-68.75,Sena Madureira,Brazil
-3,10378,GDR,,SDAG,,-22.97527,-44.30722,Angra dos Reis Airport,Brazil
-3,10403,JJD,,SBJE,,-2.906667,-40.358056,Comte. Ariston Pessoa Regional Airport,Brazil
-3,10404,JJG,JJG,SBJA,10942827.0,-28.675278,-49.060278,Jaguaruna Regional Airport,Brazil
-3,10443,QDV,,SBJD,8533002.0,-23.181667,-46.943611,Comte. Rolim Adolfo Amaro State Airport,Brazil
-4,10488,TJL,,SSTL,8643372.0,-20.75306,-51.682,Plínio Alarcom Airport,Brazil
-3,10521,ARX,,SBAC,3407379.0,-4.568611,-37.804722,Aracati - Dragão do Mar Regional Airport,Brazil
-3,10525,GGH,,SSCT,12105156.0,-23.691667,-52.642222,Engenheiro Gastão Mesquita Airport,Brazil
-3,10535,JRT,,SNRJ,,-2.186667,-56.090278,Juruti Airport,Brazil
-3,10536,JTN,,SDIM,,-24.164722,-46.785556,Antônio Ribeiro Nogueira Jr. State Airport,Brazil
-3,10559,RRJ,,SBJR,7538074.0,-22.9875,-43.37,Jacarepaguá–Roberto Marinho Airport,Brazil
-3,10574,QNS,,SBCO,,-29.945556,-51.143611,Nossa Senhora de Fátima Aerodrome,Brazil
-5,378,ASD,ASD,MYAF,3572906.0,24.697779,-77.79611,Andros Town,Bahamas
-5,402,ATC,ATC,MYCA,3572898.0,24.62861,-75.67139,Arthur's Town,Bahamas
-5,483,AXP,AXP,MYAP,7668362.0,22.45,-73.96667,Springpoint Airport,Bahamas
-5,726,BIM,BIM,MYBS,6299936.0,25.7,-79.28333,South Bimini Airport,Bahamas
-5,1141,CAT,CAT,,0.0,24.315,-75.45361,New Bight,Bahamas
-5,1197,CCZ,CCZ,MYBC,0.0,25.4175,-77.881386,Chub Cay,Bahamas
-5,1469,COX,COX,,3572603.0,24.15,-77.583336,Congo Town,Bahamas
-5,1506,CRI,CRI,MYCI,0.0,22.75,-74.15,Crooked Island,Bahamas
-5,1644,CXY,CXY,MYCC,7730681.0,25.416668,-77.816666,Cat Cays,Bahamas
-5,1726,DCT,DCT,MYRD,7668363.0,22.25,-75.75,Duncan Town,Bahamas
-5,2086,ELH,ELH,MYEH,3571778.0,25.476917,-76.68192,North Eleuthera Airport,Bahamas
-5,2398,FPO,FPO,MYGF,3572375.0,26.547293,-78.7052,Grand Bahama International,Bahamas
-5,2504,GBI,GBI,,0.0,26.666668,-78.5,Auxiliary Airfield,Bahamas
-5,2590,GGT,GGT,MYEF,6299937.0,23.564018,-75.872475,Exuma International,Bahamas
-5,2593,GHB,GHB,MYEM,7730118.0,25.280489,-76.32488,Governors Harbour,Bahamas
-5,2594,GHC,GHC,MYBG,3572290.0,25.738056,-77.84028,Great Harbour,Bahamas
-5,2760,GTC,GTC,,0.0,26.25,-77.36667,Green Turtle,Bahamas
-5,2870,HBI,HBI,,0.0,25.516666,-76.6,Harbour Island,Bahamas
-5,3214,IGA,IGA,MYIG,3572153.0,20.983334,-73.666664,Inagua,Bahamas
-5,4305,LGI,LGI,MYLD,7910227.0,23.179443,-75.09055,Deadmans Cay,Bahamas
-5,4665,MAY,MAY,,3571944.0,24.289722,-77.680275,Mangrove Cay,Bahamas
-5,4827,MHH,MHH,MYAM,7910174.0,26.513428,-77.07712,Marsh Harbour Airport,Bahamas
-5,5101,MSK,MSK,,3571904.0,25.033333,-78.0,Mastic Point,Bahamas
-5,5247,MYG,MYG,MYMM,0.0,22.376667,-73.01833,Mayaguana,Bahamas
-5,5309,NAS,NAS,MYNN,3571824.0,25.048223,-77.463776,Nassau International,Bahamas
-5,5378,NET,NET,,0.0,24.32,-75.45,New Bight,Bahamas
-5,5464,NMC,NMC,MYEN,3571802.0,24.59361,-76.82,Norman's Cay,Bahamas
-5,5539,NSB,BIM,,7731344.0,25.775,-79.25,North SPB,Bahamas
-5,6265,PPO,PPO,,8299154.0,24.9,-76.35,Powell Point,Bahamas
-5,6409,PWN,PWN,MYCP,7730682.0,22.833332,-74.35,Pitts Town,Bahamas
-5,6637,RCY,RCY,MYRP,7668364.0,23.666668,-74.96667,Rum Cay,Bahamas
-5,6832,RSD,RSD,MYER,3571592.0,24.891666,-76.178055,S Eleuthera,Bahamas
-5,6922,SAQ,SAQ,,3571523.0,25.05,-78.05,San Andros,Bahamas
-5,7209,SML,SML,MYLS,3571358.0,23.583332,-75.26806,Estate Airstrip,Bahamas
-5,7450,SWL,SWL,,3571375.0,25.54,-76.75,Spanish Wells,Bahamas
-5,7566,TBI,TBI,MYCB,3571819.0,24.315,-75.45361,New Bright,Bahamas
-5,7584,TCB,TCB,MYAT,7535668.0,26.735,-77.37222,Treasure Cay,Bahamas
-5,8020,TYM,TYM,,0.0,24.15,-76.433334,Staniel Cay,Bahamas
-5,8031,TZN,TZN,,0.0,24.165,-77.58528,South Andros,Bahamas
-5,8527,WKR,WKR,,0.0,27.266666,-78.4,Walker's Cay,Bahamas
-5,8617,WTD,WTD,MYGW,3571224.0,26.686111,-78.97583,West End,Bahamas
-5,8660,WZY,NAS,,0.0,25.0825,-77.327225,Paradise Island Seaplane Base,Bahamas
-5,9926,ZSA,ZSA,MYSM,6299942.0,24.06,-74.53306,San Salvador,Bahamas
6,5965,PBH,PBH,VQPR,7668639.0,27.433332,89.416664,Paro,Bhutan
6,10349,BUT,,VQBT,8531844.0,27.5622,90.7471,Bathpalathang Airport,Bhutan
6,10514,YON,,VQTY,8411020.0,27.2563889,91.5144444,Yongphulla Airport,Bhutan
2,553,BBK,BBK,FBKE,6296946.0,-17.816668,25.15,Kasane,Botswana
2,2420,FRW,FRW,FBFT,6296943.0,-21.16,27.4825,Francistown,Botswana
2,2500,GBE,GBE,FBSK,6296949.0,-24.557981,25.92451,Sir Seretse Khama International,Botswana
2,2681,GNZ,GNZ,FBGZ,6296944.0,-21.7,21.666668,Ghanzi,Botswana
2,3110,HUK,HUK,,7731097.0,-23.983334,21.75,Hukuntsi,Botswana
2,3652,JWA,JWA,FBJW,6296945.0,-24.6,24.666668,Jwaneng,Botswana
2,3831,KHW,KHW,FBKR,7730494.0,-19.0,23.5,Khwai River Lodge,Botswana
2,4456,LOQ,LOQ,,933521.0,-25.190277,25.681944,Lobatse,Botswana
2,5144,MUB,MUB,FBMN,6296948.0,-19.970833,23.430555,Maun,Botswana
2,5830,ORP,ORP,FBOR,7668231.0,-21.0,24.5,Orapa,Botswana
2,6153,PKW,PKW,FBSP,6296951.0,-22.05,27.816668,Selebi-Phikwe,Botswana
2,7434,SVT,SVT,FBSV,8298732.0,-18.633333,24.083332,Savuti,Botswana
2,7461,SWX,SWX,FBSW,6296952.0,-18.383333,21.833332,Shakawe,Botswana
2,7475,SXN,SXN,FBSN,6296950.0,-20.55,26.116667,Suapan,Botswana
2,7581,TBY,TBY,FBTS,6296954.0,-26.066668,22.466667,Tsabong,Botswana
2,7768,TLD,TLD,FBTL,7730496.0,-22.183332,29.116667,Limpopo Valley,Botswana
3,914,BQT,BQT,UMBB,6300976.0,52.11667,23.883333,Brest,Belarus
3,2655,GME,GME,UMGG,6300977.0,52.416668,31.0,Gomel,Belarus
3,2667,GNA,GNA,UMMG,6300980.0,53.666668,23.8,Grodna,Belarus
3,4834,MHP,MSQ,UMMM,6300981.0,53.85,27.55,Minsk International 1,Belarus
3,5107,MSQ,MSQ,UMMS,6301868.0,53.889725,28.032442,Minsk National 2,Belarus
3,5181,MVQ,MVQ,UMOO,7668522.0,53.95,30.133333,Mogilev,Belarus
3,8399,VTB,VTB,UMII,6300978.0,55.13333,30.366667,Vitebsk,Belarus
-6,588,BCV,BCV,,3582672.0,17.266666,-88.78333,Belmopan,Belize
-6,675,BGK,BGK,,3582656.0,16.516666,-88.4,Big Creek,Belize
-6,1104,BZE,BZE,MZBZ,3582677.0,17.539167,-88.308334,Philip S. W. Goldson International,Belize
-6,1583,CUK,CUK,,7730330.0,17.766666,-88.0,Caye Caulker,Belize
-6,1647,CYC,CYC,,3582432.0,17.666668,-88.833336,Caye Chapel,Belize
-6,1668,CZH,CZH,,7910483.0,18.383333,-88.416664,Corozal,Belize
-6,1757,DGA,DGA,,7730322.0,17.183332,-88.566666,Dangriga,Belize
-6,3284,INB,INB,,3581905.0,17.547222,-88.3,Independence,Belize
-6,4720,MDB,MDB,,0.0,16.998611,-88.32056,Melinda,Belize
-6,5269,MZE,MZE,,0.0,17.083332,-89.6,Manatee,Belize
-6,5840,ORZ,ORZ,,0.0,17.166668,-88.75,Orange Walk,Belize
-6,6162,PLJ,PLJ,,7910454.0,16.533333,-88.352776,Placencia,Belize
-6,6207,PND,PND,,3581398.0,16.1,-88.816666,Punta Gorda,Belize
-6,7146,SJX,SJX,,0.0,18.3,-88.333336,Sartaneja,Belize
-6,7290,SPR,SPR,,3581164.0,17.911112,-87.96861,San Pedro,Belize
-6,7313,SQS,SQS,,3581194.0,17.183332,-89.03333,Matthew Spain,Belize
-6,7386,STU,STU,,0.0,18.266666,-88.45,Santa Cruz,Belize
-6,7426,SVK,SVK,,7731519.0,16.7253,-88.34,Silver Creek,Belize
-6,8027,TZA,BZE,,0.0,17.51639,-88.191666,Municipal,Belize
-5,223,AKV,AKV,CYKO,6296219.0,60.733334,-78.583336,Akulivik,Canada
-7,1258,CFQ,CFQ,,5932311.0,49.036945,-116.49834,Creston Valley Airport,Canada
-8,1342,CJH,CJH,,8260795.0,51.333332,-124.083336,Chilko Lake,Canada
-8,1634,CXH,YVR,CYHC,0.0,49.266666,-123.11667,Coal Harbour,Canada
-7,1698,DAS,DAS,,0.0,66.70306,-119.712776,Great Bear Lake,Canada
-8,1725,DCP,DCP,,0.0,0.0,0.0,Cabin Plant Heliport,Canada
-8,1761,DGF,DGF,,0.0,50.166668,-120.183334,Douglas Lake,Canada
-8,1780,DHO,DHO,,0.0,0.0,0.0,Horn River,Canada
-8,1812,DKL,DKL,,0.0,0.0,0.0,Kiwigana Lodge,Canada
-8,1948,DUQ,DUQ,CAM3,0.0,48.783333,-123.7,Duncan/Quam,Canada
-7,1953,DVK,DVK,,8260739.0,64.51139,-110.289444,Diavik,Canada
-7,2749,GSL,GSL,,0.0,62.5975,-111.54444,Taltheilei Narrows,Canada
-7,3155,HZP,HZP,CYNR,8260954.0,57.381668,-111.70111,Horizon,Canada
-6,3254,ILF,ILF,CZBD,8298646.0,56.066666,-95.61667,Ilford,Canada
-8,3388,IUM,IUM,,8299021.0,54.333332,-122.666664,Summit Lake,Canada
-7,3519,JHL,HZP,,8298921.0,57.22389,-111.41889,Albian,Canada
-7,3586,JOJ,UZM,,0.0,0.0,0.0,Doris Lake,Canada
-6,3778,KES,KES,CZEE,7730044.0,56.016666,-96.5,Kelsey,Canada
-6,3782,KEW,KEW,CPV8,7910275.0,52.99222,-92.83889,Keewaywin,Canada
-6,3838,KIF,KIF,CNM5,7730450.0,53.01389,-89.85,Kingfisher Lake,Canada
-8,3953,KNV,KNV,,8260972.0,50.683334,-125.833336,Knights Inlet,Canada
-6,3956,KNY,KNY,,8261071.0,57.066666,-102.03333,Kinoosao,Canada
-7,4176,LAK,LAK,CYKD,6296214.0,68.22222,-134.98584,Aklavik,Canada
-6,4504,LRQ,LRQ,,8298678.0,56.216667,-101.0,Laurie River,Canada
-6,5092,MSA,MSA,CZMD,7668162.0,53.816666,-91.98333,Muskrat Dam,Canada
-7,5467,NML,NML,,6073569.0,57.03353,-111.60191,Mildred Lake,Canada
-2:30,5606,NWP,NWP,,7732472.0,47.3,-53.966667,NS,Canada
-6,6123,PIW,PIW,CZMN,7668163.0,55.7,-97.333336,Pikwitonei,Canada
-8,6447,QBC,QBC,CYBD,8062543.0,52.333332,-126.666664,Bella Coola,Canada
-5,7359,SSQ,SSQ,,8181664.0,48.916668,-79.166664,La Sarre,Canada
-5,7409,SUR,SUR,CJV7,7730446.0,52.71528,-88.5475,Summer Beaver,Canada
-8,7493,SYF,SYF,,6147649.0,49.15,-123.69722,Silva Bay,Canada
-7,7712,TIL,TIL,,5983620.0,50.5,-1.03,Inverlake,Canada
-7,7832,TNS,TNS,,8260915.0,62.0,-127.666664,Tungsten,Canada
-8,7983,TUX,TUX,,6170118.0,55.1,-121.083336,Tumbler Ridge,Canada
-7,8231,UZM,UZM,,8260829.0,68.1639,-106.614,Hope Bay,Canada
-6,8562,WNN,WNN,CKL3,7730447.0,52.916668,-89.166664,Wunnummin Lake,Canada
-7,8581,WPC,WPC,,6104841.0,49.483334,-113.95,Pincher Creek,Canada
-8,8583,WPL,WPL,,8298977.0,50.183334,-124.4,Powell Lake,Canada
-6,8661,XAD,YYQ,,0.0,58.755456,-94.112469,Churchill Railway Station,Canada
-5,8670,XAW,XAW,,0.0,0.0,0.0,Capreol Railway Station,Canada
-5,8671,XAX,YMQ,,0.0,45.5088889,-73.5541667,Dorval Railway Station,Canada
-4,8673,XAZ,XAZ,,0.0,0.0,0.0,Campbellton Railway Station,Canada
-8,8674,XBB,XBB,,8299196.0,50.0,-123.0,Blubber Bay,Canada
-6,8675,XBE,XBE,CNE3,7730449.0,53.95,-90.98333,Bearskin Lake,Canada
-5,8681,XBR,XBR,CNL3,5909294.0,44.583332,-75.683334,Brockville,Canada
-5,8682,XBW,XBW,,0.0,42.65,-80.82,Killineq,Canada
-5,8685,XCI,XCI,,5919569.0,48.43339,-72.06583,Chambord Railway Station,Canada
-6,8686,XCL,XCL,,8260797.0,59.0,-107.0,Cluff Lake,Canada
-5,8687,XCM,XCM,CNZ3,8298609.0,42.4,-82.183334,Chatham,Canada
-5,8692,XDD,YGP,,0.0,48.902945,-64.478683,Gaspe Railway Station,Canada
-4,8694,XDG,YHZ,,0.0,44.648881,-63.575312,Halifax Railway Station,Canada
-7,8695,XDH,YJA,,0.0,0.0,0.0,Jasper Railway Station,Canada
-5,8697,XDL,XDL,,6943811.0,48.34935,-64.67926,Chandler Railway Station,Canada
-5,8698,XDM,XDM,,5942845.0,45.88336,-72.48241,Drummondville Railway Station,Canada
-5,8699,XDO,XDO,,6943814.0,48.40026,-64.50108,Grande-Riviere Railway Station,Canada
